stop_id,stop_code,stop_name,stop_desc,stop_lat,stop_lon,zone_id,stop_url,location_type,parent_station
1,,COLUMBUS ST & BROADWAY,,41.392985,-81.536518,,,0,
2,,10800 BROOKPARK RD (HOME DEPOT),,41.418571,-81.760947,,,0,
4,,EUCLID AV & E 100TH ST,,41.503697,-81.618108,,,0,
5,,10081 W RIDGEWOOD DR,,41.384506,-81.756317,,,0,
14,,PROSPECT AV & ONTARIO ST,,41.49803,-81.692012,,,0,
19,,1028 PROSPECT AV E,,41.499123,-81.684377,,,0,
20,,1027 SUPERIOR AV E,,41.502891,-81.687717,,,0,
24,,10406 KINSMAN RD,,41.469926,-81.612171,,,0,
25,,10335 DETROIT AV,,41.481026,-81.758801,,,0,
26,,10335 DETROIT AV,,41.48118,-81.758991,,,0,
28,,QUINCY AV & WOOODHILL RD,,41.49346,-81.612313,,,0,
31,,10603 DETROIT AV,,41.481524,-81.760756,,,0,
32,,10603 DETROIT AV,,41.481593,-81.76059,,,0,
39,,ST. CLAIR AV & E 106TH ST,,41.539638,-81.613489,,,0,
41,,10708 KINSMAN RD,,41.469199,-81.608649,,,0,
43,,MILES AV & E ELMARGE RD,,41.445093,-81.609952,,,0,
47,,10705 LORAIN AV,,41.46453,-81.760531,,,0,
65,,BUCKEYE RD & MARTIN LUTHER KING DR,,41.481769,-81.609437,,,0,
70,,ST. CLAIR AV & E 112TH ST,,41.540794,-81.60658,,,0,
72,,W PLEASANT VALLEY RD & CUYAHOGA COM COLLEGE WEST,,41.363855,-81.764191,,,0,
78,,11109 W PLEASANT VALLEY RD,,41.363835,-81.763759,,,0,
83,,11216 STOKES BLVD,,41.493975,-81.604735,,,0,
84,,PEARL RD & IDLEWOOD TRAIL,,41.330184,-81.836678,,,0,
99,,W PLEASANT VALLEY RD & E BICENTENNIAL DR,,41.363934,-81.768807,,,0,
109,,BROOKPARK RD & CHEVROLET BLVD,,41.418546,-81.770086,,,0,
110,,11801 LAKESHORE BLVD,,41.555098,-81.602681,,,0,
111,,11801 LAKESHORE BLVD,,41.555139,-81.602752,,,0,
113,,11820 EDGEWATER DR,,41.490583,-81.771024,,,0,
114,,11843 EDGEWATER DR,,41.490328,-81.770474,,,0,
115,,CLIFTON BLVD & FRY AV,,41.488505,-81.772355,,,0,
119,,PEARL RD & PROGRESS DR,,41.325352,-81.836814,,,0,
123,,12000 FAIRHILL RD,,41.493064,-81.598856,,,0,
124,,12000 FAIRHILL RD,,41.492879,-81.598898,,,0,
138,,1240 WARREN RD,,41.489551,-81.799374,,,0,
140,,BUCKEYE RD & E 124TH ST,,41.480316,-81.596803,,,0,
142,,1245 WARREN RD,,41.489509,-81.79929,,,0,
146,,EDGEWATER DR & COVE DR,,41.491859,-81.774617,,,0,
147,,W PLEASANT VALLEY RD & PARMA PARK BLVD,,41.363947,-81.776212,,,0,
148,,W PLEASANT VALLEY RD & PARMA PARK BLVD,,41.363861,-81.776437,,,0,
149,,12509 ST. CLAIR AV,,41.541627,-81.597057,,,0,
150,,12518 LAKESHORE BLVD,,41.560109,-81.597768,,,0,
151,,12521 LAKESHORE BLVD,,41.560095,-81.597989,,,0,
152,,12543 LAKE AV,,41.490906,-81.777146,,,0,
153,,12547 LAKE AV,,41.49086,-81.777442,,,0,
168,,12720 LAKESHORE BLVD,,41.561224,-81.596059,,,0,
178,,13200 PEARL RD,,41.317731,-81.835635,,,0,
190,,12910 LAKESHORE BLVD,,41.562668,-81.593901,,,0,
192,,LAKE AV & GOLD COAST LN,,41.491448,-81.779969,,,0,place_wipl
199,,GOLD COAST LN LOOP,,41.491957,-81.779893,,,0,place_wipl
201,,CORLETT AV & CORLETT LOOP,,41.455474,-81.592621,,,0,
202,,PEARL RD & ZVERINA LN,,41.31759,-81.83543,,,0,
203,,13003 LAKESHORE BLVD,,41.562849,-81.593772,,,0,
207,,1311 CHARDON RD,,41.571641,-81.535262,,,0,
211,,13207 MILES AV,,41.445323,-81.59014,,,0,
212,,13211 LAKESHORE BLVD,,41.56458,-81.59126,,,0,
213,,13211 LAKESHORE BLVD,,41.564575,-81.591455,,,0,
217,,13300 BROOKPARK RD,,41.418514,-81.783927,,,0,
218,,1331 CHARDON RD,,41.574833,-81.537232,,,0,
222,,13405 LAKESHORE BLVD,,41.565627,-81.590029,,,0,
223,,KINSMAN RD & E 135TH ST,,41.465077,-81.589006,,,0,
228,,13478 LAKESHORE BLVD,,41.565546,-81.589632,,,0,
233,,ST. CLAIR AV & WOODWORTH RD,,41.545228,-81.590532,,,0,
242,,SLOANE AV & EDANOLA AV,,41.482871,-81.829592,,,0,
246,,SLOANE AV & DETROIT RD,,41.482585,-81.829498,,,0,
247,,CLIFTON BLVD & BUNTS RD,,41.491444,-81.790184,,,0,
254,,BARTLETT AV & E 140TH ST,,41.45754,-81.584486,,,0,
261,,14200 SUPERIOR RD,,41.515502,-81.573698,,,0,
264,,14300 TURNEY RD,,41.394521,-81.583732,,,0,
269,,14092 PEARL RD,,41.311315,-81.835385,,,0,
272,,14201 PURITAS AV,,41.433502,-81.792663,,,0,
274,,14401 TURNEY RD,,41.393703,-81.580316,,,0,
275,,14600 TURNEY RD (ST. MARTIN'S CHURCH),,41.393705,-81.580757,,,0,
287,,1470 WARREN RD,,41.483093,-81.79962,,,0,
291,,14701 TURNEY RD,,41.393525,-81.578838,,,0,
292,,14730 TURNEY RD,,41.39345,-81.578777,,,0,
293,,1476 WARRENSVILLE CTR RD,,41.519422,-81.536585,,,0,
301,,1491 CHARDON RD,,41.569789,-81.534102,,,0,
302,,BARTLETT AV & E 149TH ST,,41.457591,-81.576491,,,0,
316,,15299 BAGLEY RD,,41.369484,-81.805639,,,0,
317,,15299 BAGLEY RD,,41.369232,-81.805599,,,0,
319,,15300 HOWE RD,,41.310551,-81.815573,,,0,
321,,ST. CLAIR AV & E 153RD ST LOOP STOP 2,,41.554209,-81.574449,,,0,
323,,15410 BROOKPARK RD,,41.418592,-81.805572,,,0,
326,,W 25TH ST & FRANKLIN AV,,41.489247,-81.706577,,,0,
331,,MUNN RD & TUTTLE AV,,41.458762,-81.805359,,,0,
332,,LORAIN AV & TRISKETT RD,,41.452037,-81.80612,,,0,
333,,15583 BROOKPARK RD,,41.418493,-81.806085,,,0,
337,,15610 WALDEN AV,,41.455002,-81.570784,,,0,
339,,15650 PEARL RD,,41.30263,-81.835312,,,0,
340,,15653 PEARL RD,,41.30202,-81.835035,,,0,
341,,15655 BROOKPARK RD,,41.418514,-81.80731,,,0,
342,,15703 WALDEN AV,,41.455103,-81.570588,,,0,
343,,15708 BROOKPARK RD,,41.418636,-81.807865,,,0,
344,,MUNN RD & DORIS RD,,41.459784,-81.808043,,,0,
346,,15745 EAST BAGLEY RD,,41.371488,-81.8095,,,0,
348,,15802 SEVILLE RD,,41.434989,-81.570566,,,0,
349,,PEARL RD & KNOWLTON PKWY,,41.29942,-81.835099,,,0,
350,,15900 MAPLE HEIGHTS BLVD,,41.415821,-81.569956,,,0,
358,,15700 EAST BAGLEY RD,,41.37152,-81.809185,,,0,
361,,1601 WARREN RD,,41.479555,-81.800036,,,0,
362,,E 105TH ST & MAGNOLIA DR,,41.514912,-81.615351,,,0,
368,,BROOKPARK RD & W 161ST ST,,41.418665,-81.811009,,,0,
370,,16151 LAKESHORE BLVD,,41.580082,-81.566729,,,0,
373,,ST. CLAIR AV & HOLMES AV,,41.560106,-81.566793,,,0,
375,,MUNN RD & W 165TH ST,,41.461962,-81.81227,,,0,
381,,ST. CLAIR AV & E. 166TH ST,,41.561819,-81.564287,,,0,
383,,16608 LAKESHORE BLVD,,41.580611,-81.563749,,,0,
384,,16700 ST. CLAIR AV,,41.56262,-81.563442,,,0,
387,,16800 CHAGRIN BLVD,,41.464455,-81.562504,,,0,
392,,16812 CHAGRIN BLVD,,41.464563,-81.562044,,,0,
393,,16812 TARKINGTON AV,,41.431398,-81.562472,,,0,
394,,16813 TARKINGTON AV,,41.43145,-81.562113,,,0,
398,,17201 MILES AV,,41.438673,-81.559072,,,0,
399,,17203 HARVARD AV E,,41.449769,-81.55946,,,0,
404,,CLIFTON BLVD & GRANGER AV,,41.491506,-81.816733,,,0,
406,,17415 HARVARD AV E,,41.44992,-81.557607,,,0,
407,,17419 PURITAS AV,,41.433915,-81.818734,,,0,
408,,17439 LORAIN AV,,41.450103,-81.818658,,,0,
410,,BAGLEY RD & I-71,,41.37196,-81.821549,,,0,
411,,17515 S MILES RD,,41.435189,-81.555843,,,0,
412,,17570 LAKESHORE BLVD,,41.582773,-81.557834,,,0,
413,,LAKESHORE BLVD & WILDWOOD LN,,41.582928,-81.557828,,,0,
416,,LAKESHORE BLVD & MARCELLA RD,,41.583982,-81.557206,,,0,
418,,17700 ST. CLAIR AV,,41.568109,-81.555756,,,0,
419,,17712 PURITAS AV,,41.434062,-81.82035,,,0,
421,,17800 ST. CLAIR AV,,41.568762,-81.555144,,,0,
425,,HARVARD AV & LEE HEIGHTS BLVD,,41.4499,-81.553563,,,0,
426,,MILES AV & LEE HTS BLVD,,41.436964,-81.553391,,,0,
427,,ST. CLAIR AV & E. 179TH ST,,41.569672,-81.553701,,,0,
433,,18200 LORAIN AV,,41.450758,-81.822992,,,0,
434,,18013 PURITAS AV,,41.433981,-81.823426,,,0,
437,,EUCLID AV & CLIFFVIEW RD,,41.555477,-81.552109,,,0,
438,,18120 PURITAS AV,,41.434112,-81.823984,,,0,
439,,SLOANE AV & W CLIFTON BLVD,,41.486295,-81.823144,,,0,
441,,18324 E BAGLEY RD,,41.372001,-81.828825,,,0,
444,,18211 LORAIN AV,,41.45089,-81.822971,,,0,
445,,ST. CLAIR AV & MELVILLE RD,,41.571539,-81.551225,,,0,
446,,18213 HARVARD AV E,,41.4498,-81.551534,,,0,
448,,DETROIT AV & MAILE AV,,41.482867,-81.825743,,,0,
449,,SLOANE AV & PARK ROW,,41.485735,-81.826105,,,0,
450,,SLOANE AV & PARK ROW,,41.485814,-81.82625,,,0,
459,,18624 SYRACUSE AV,,41.574423,-81.54906,,,0,
462,,E BAGLEY RD & HEPBURN RD,,41.371912,-81.830808,,,0,
463,,E BAGLEY RD & HEPBURN RD,,41.372113,-81.831609,,,0,
464,,SLOANE AV & EDANOLA AV,,41.485204,-81.828338,,,0,
467,,18825 ROYALTON RD,,41.31438,-81.833718,,,0,
475,,ROCKY RIVER LOOP,,41.481232,-81.828173,,,0,
482,,19115 ST. CLAIR AV,,41.575778,-81.545358,,,0,
485,,19170 BAGLEY RD,,41.372308,-81.836538,,,0,
486,,19199 ST. CLAIR AV,,41.575697,-81.545279,,,0,
489,,19355 BAGLEY RD,,41.372102,-81.836919,,,0,
490,,HILLIARD BLVD & WOOSTER RD,,41.471506,-81.835105,,,0,
492,,19350 PURITAS AV,,41.434157,-81.835584,,,0,
495,,MILES RD & EMERY RD,,41.432554,-81.541829,,,0,
496,,MILES RD & EMERY RD,,41.432629,-81.542192,,,0,
497,,19516 HARVARD AV,,41.449815,-81.541924,,,0,
499,,CENTER RIDGE RD & WOOSTER PARK DR,,41.465601,-81.839146,,,0,
500,,BAGLEY DR & PLEASANT ST,,41.372407,-81.839521,,,0,
501,,19700 LAKESHORE BLVD,,41.599869,-81.542314,,,0,
502,,19707 HARVARD AV,,41.449928,-81.540781,,,0,
505,,19750 ST. CLAIR AV,,41.577964,-81.541504,,,0,
506,,19751 ST. CLAIR AV,,41.578028,-81.541608,,,0,
509,,BAGLEY DR & PLEASANT ST,,41.372233,-81.839403,,,0,
521,,20115 HARVARD AV,,41.449952,-81.537558,,,0,
522,,20123 LORAIN RD,,41.449188,-81.842577,,,0,
524,,2020 N TAYLOR RD,,41.534634,-81.566998,,,0,
531,,RIVERSIDE DR & MADISON AV,,41.477449,-81.820277,,,0,
532,,2037 N TAYLOR RD,,41.534718,-81.566911,,,0,
538,,20500 ST. CLAIR AV,,41.58131,-81.535887,,,0,
544,,20600 LORAIN RD,,41.447838,-81.848311,,,0,
545,,20627 LORAIN RD,,41.447504,-81.848979,,,0,
546,,2064 STEARNS RD,,41.502392,-81.609213,,,0,
549,,20667 ELLACOTT PKWY,,41.441503,-81.533183,,,0,
550,,20667 ELLACOTT PKWY,,41.441586,-81.533376,,,0,
554,,2074 ADELBERT RD,,41.504686,-81.60736,,,0,
559,,20900 ST. CLAIR AV,,41.581292,-81.53564,,,0,
564,,20955 ELLACOTT PKWY,,41.441679,-81.531322,,,0,
571,,21051 ELLACOTT PKWY,,41.441642,-81.531264,,,0,
572,,21100 SOUTHGATE PARK BLVD,,41.414583,-81.53161,,,0,
573,,21100 SOUTHGATE PARK BLVD,,41.414472,-81.53201,,,0,
574,,SOUTHGATE TRANSIT CENTER STOP #3,,41.412777,-81.536584,,,0,
578,,21170 ELLACOTT PKWY,,41.441793,-81.530004,,,0,
586,,21119 ST. CLAIR AV,,41.582966,-81.532767,,,0,
587,,21300 ST. CLAIR AV,,41.582879,-81.532676,,,0,
588,,WESTGATE TRANSIT CENTER,,41.460951,-81.854919,,,0,
589,,21357 ELLACOTT PKWY,,41.44185,-81.528977,,,0,
591,,2130 ADELBERT RD,,41.503476,-81.60566,,,0,
592,,21500 ST. CLAIR AV,,41.584087,-81.530416,,,0,
595,,21590 CENTER RIDGE RD,,41.459881,-81.858806,,,0,
596,,21590 CENTER RIDGE RD,,41.460025,-81.858831,,,0,
599,,DETROIT RD & WARWICK LN,,41.471958,-81.860081,,,0,
601,,21700 ST. CLAIR AV,,41.584236,-81.530415,,,0,
602,,2175 GREEN RD,,41.549671,-81.54113,,,0,
611,,2199 RIVERSIDE DR,,41.472316,-81.822894,,,0,
612,,22000 CENTER RIDGE RD,,41.458605,-81.864281,,,0,
617,,2210 CEDAR AV,,41.498323,-81.672674,,,0,
621,,ST. CLAIR AV & E 222ND ST,,41.585604,-81.527052,,,0,
629,,22481 CENTER RIDGE RD,,41.457635,-81.868802,,,0,
636,,2255 GREEN RD,,41.548025,-81.538911,,,0,
640,,22657 EUCLID AV,,41.573394,-81.523481,,,0,
643,,CENTER RIDGE RD & TIFFANY RIDGE,,41.457735,-81.868799,,,0,
646,,2280 GREEN RD,,41.54765,-81.538623,,,0,
651,,22900 CENTER RIDGE RD,,41.456718,-81.874213,,,0,
654,,22909 CENTER RIDGE RD,,41.456687,-81.873887,,,0,
657,,22950 EUCLID AV,,41.575378,-81.519277,,,0,
658,,DETROIT RD & BRICK MILL RUN RD,,41.471444,-81.873783,,,0,
659,,DETROIT RD & BRICK MILL RUN RD,,41.471527,-81.874126,,,0,
660,,230 S GREEN RD,,41.543827,-81.533588,,,0,
662,,23000 ST. CLAIR AV,,41.585793,-81.521303,,,0,
663,,23000 ST. CLAIR AV,,41.585893,-81.521034,,,0,
664,,23050 EUCLID AV,,41.574305,-81.521313,,,0,
670,,LAKESHORE BLVD & E 232ND ST,,41.61386,-81.520266,,,0,
676,,23239 LORAIN RD,,41.43534,-81.878328,,,0,
677,,23239 LORAIN RD,,41.435534,-81.878309,,,0,
681,,23300 EUCLID AV,,41.575606,-81.51913,,,0,
683,,23305 CHAGRIN BLVD,,41.464605,-81.513938,,,0,
685,,23300 CHAGRIN BLVD,,41.464396,-81.514559,,,0,
690,,23400 EMERY RD,,41.435196,-81.513906,,,0,
696,,23500 ST. CLAIR AV,,41.587056,-81.516505,,,0,
697,,23500 ST. CLAIR AV,,41.586762,-81.516974,,,0,
700,,23540 LAKESHORE BLVD,,41.614541,-81.518355,,,0,
707,,23600 EMERY RD,,41.435195,-81.512389,,,0,
708,,23600 EMERY RD,,41.435067,-81.512716,,,0,
711,,23700 CHAGRIN BLVD,,41.464414,-81.512485,,,0,
717,,23811 CHAGRIN BLVD,,41.464482,-81.511132,,,0,
719,,23880 FAIRMOUNT BLVD,,41.486234,-81.511072,,,0,
720,,23900 FAIRMOUNT BLVD,,41.486421,-81.510758,,,0,
727,,24018 DETROIT RD,,41.471465,-81.886538,,,0,
730,,24100 CHAGRIN BLVD,,41.464409,-81.508743,,,0,
732,,24110 EUCLID AV,,41.577441,-81.515835,,,0,
739,,24200 CENTER RIDGE RD,,41.458114,-81.88909,,,0,
740,,24231 CENTER RIDGE RD,,41.458074,-81.889142,,,0,
744,,24307 EMERY RD,,41.435189,-81.507274,,,0,
748,,LAKESHORE BLVD & E 246TH ST,,41.617018,-81.512178,,,0,
753,,24600 DETROIT RD,,41.470773,-81.894281,,,0,
757,,CHAGRIN BLVD & FIRE STATION DR,,41.464543,-81.504545,,,0,
766,,LAKESHORE BLVD & E 248TH ST,,41.617651,-81.510485,,,0,
767,,24819 EMERY RD,,41.435187,-81.502927,,,0,
768,,24840 EMERY RD,,41.435061,-81.503332,,,0,
776,,2502 CEDAR AV,,41.498576,-81.670677,,,0,
782,,2514 CEDAR AV,,41.498494,-81.670656,,,0,
786,,25200 CHAGRIN BLVD,,41.464393,-81.50042,,,0,
787,,25201 CHAGRIN BLVD,,41.46452,-81.501106,,,0,
789,,25220 FAIRMOUNT BLVD,,41.48618,-81.500533,,,0,
795,,2536 KEMPER RD,,41.489286,-81.590324,,,0,
796,,2538 KEMPER RD,,41.489427,-81.590476,,,0,
800,,MARTIN LUTHER KING DR & FAIRHILL RD,,41.492913,-81.601739,,,0,
801,,MARTIN LUTHER KING DR & WOODSTOCK AV,,41.490055,-81.601928,,,0,
802,,MARTIN LUTHER KING DR & WOODLAND AV,,41.488746,-81.602332,,,0,
808,,FAIRMOUNT BLVD & RICHMOND RD,,41.486367,-81.49878,,,0,
817,,25759 DETROIT RD,,41.469757,-81.904743,,,0,
820,,25776 CENTER RIDGE RD,,41.454926,-81.905781,,,0,
821,,25850 DETROIT RD (WINFIELD COMMONS APTS),,41.469827,-81.90483,,,0,
822,,25717 LAKESHORE BLVD,,41.620366,-81.503857,,,0,
825,,25900 EUCLID AV,,41.586684,-81.503684,,,0,
829,,DETROIT RD & COBBLESTONE CHASE,,41.469376,-81.908158,,,0,
832,,ST. CLAIR AV & E 26TH ST,,41.511652,-81.674165,,,0,
834,,27100 CHAGRIN BLVD,,41.462288,-81.486586,,,0,
838,,CENTER RIDGE RD & RADCLIFFE DR,,41.453913,-81.908972,,,0,
842,,EUCLID AV & RICHMOND RD,,41.588316,-81.501581,,,0,
846,,2626 NORTH MORELAND BLVD,,41.486256,-81.590279,,,0,
854,,WARRENSVILLE CTR RD & N PARK BLVD,,41.487399,-81.536149,,,0,
855,,EUCLID AV & RICHMOND RD,,41.587819,-81.501952,,,0,
856,,DETROIT RD & MARVIEW DR,,41.468341,-81.914515,,,0,
858,,CHARDON RD & BRUSHVIEW DR,,41.577599,-81.494198,,,0,
869,,FARGO AV TURNAROUND,,41.418563,-81.490992,,,0,
873,,DETROIT RD & MENDELSSOHN DR,,41.467822,-81.918422,,,0,
884,,27026 CENTER RIDGE RD,,41.450235,-81.919877,,,0,
885,,27027 CHARDON RD,,41.580662,-81.491094,,,0,
887,,LAKESHORE BLVD & E 270TH ST,,41.623271,-81.496837,,,0,
895,,27333 CENTER RIDGE RD(WESTLAKE PORTER LIBRARY),,41.448526,-81.924384,,,0,
896,,27350 EUCLID AV,,41.593158,-81.493075,,,0,
897,,27366 DETROIT RD,,41.466823,-81.924046,,,0,
898,,27366 DETROIT RD,,41.466945,-81.924122,,,0,
899,,27350 CENTER RIDGE RD,,41.448647,-81.924366,,,0,
902,,27460 CENTER RIDGE RD,,41.447894,-81.926425,,,0,
903,,27470 CENTER RIDGE RD,,41.447812,-81.926379,,,0,
905,,27540 DETROIT RD,,41.466723,-81.926567,,,0,
908,,DETROIT RD & REMINGTON DR,,41.466144,-81.929373,,,0,
910,,TUNGSTEN RD LOOP,,41.597887,-81.492932,,,0,
917,,27875 OSBORN RD,,41.482163,-81.927515,,,0,
918,,27878 OSBORN RD,,41.482259,-81.927289,,,0,
928,,28080 CENTER RIDGE RD,,41.443689,-81.933375,,,0,
934,,28300 CENTER RIDGE RD,,41.441955,-81.935125,,,0,
936,,28239 DETROIT RD,,41.46561,-81.934869,,,0,
937,,28303 DETROIT RD,,41.465479,-81.935789,,,0,
941,,CENTER RIDGE & CHASE DR,,41.440162,-81.936823,,,0,
942,,28420 LAKESHORE BLVD,,41.627348,-81.487244,,,0,
944,,CENTER RIDGE RD & WESTLAKE VILLAGE DR,,41.439001,-81.937932,,,0,
948,,CENTER RIDGE & HEALTH CAMPUS DR,,41.435962,-81.940657,,,0,
949,,DETROIT RD & SETTLERS RESERVE WAY,,41.465198,-81.938739,,,0,
956,,2880 WOODHILL RD,,41.480509,-81.619127,,,0,
962,,E 79TH ST BLUE-GREEN LINE STATION,,41.480647,-81.632967,,,0,
964,,29017 OSBORN RD,,41.482223,-81.940665,,,0,
971,,29214 OSBORN RD,,41.482313,-81.942975,,,0,
997,,29825 CHAGRIN BLVD,,41.462322,-81.467918,,,0,
998,,29825 CHAGRIN BLVD,,41.462406,-81.468153,,,0,
999,,WOODHILL RD & PARKVIEW AV,,41.476971,-81.620834,,,0,
1015,,CLARK AV & W 30TH ST,,41.469934,-81.702668,,,0,
1016,,WOODHILL RD & PARKVIEW AV,,41.477197,-81.620867,,,0,
1029,,30503 WOLF RD,,41.485261,-81.956736,,,0,
1030,,30510 WOLF RD,,41.485304,-81.956447,,,0,
1033,,W 14TH ST & CLARK AV,,41.470449,-81.691163,,,0,
1072,,3201 HARVARD AV,,41.447162,-81.666145,,,0,
1085,,325 UNION ST,,41.380714,-81.52486,,,0,
1087,,W 25TH ST & MEYER AV,,41.465257,-81.70011,,,0,
1095,,3290 WARRENSVILLE CENTER RD,,41.470062,-81.536451,,,0,
1100,,3360 W 210TH ST,,41.460226,-81.852801,,,0,
1101,,3300 W 98TH ST,,41.464014,-81.751147,,,0,
1104,,3289 W 98TH ST,,41.464351,-81.751071,,,0,
1109,,CLARK AV & W 33RD ST,,41.469887,-81.705848,,,0,
1120,,W 210TH ST & WESTGATE 2ND DR,,41.460787,-81.852669,,,0,
1125,,BROADVIEW RD & PEARL RD,,41.44129,-81.704326,,,0,
1129,,MONTICELLO BLVD & BRANDON RD,,41.525533,-81.558766,,,0,
1130,,SCRANTON RD & METROHEALTH DR,,41.463071,-81.698817,,,0,
1135,,3407 SCRANTON RD,,41.46163,-81.699064,,,0,
1138,,3410 ROCKY RIVER DR,,41.460436,-81.814357,,,0,
1142,,3426 W 98TH ST,,41.460414,-81.751124,,,0,
1143,,3427 E 116TH ST,,41.465543,-81.602834,,,0,
1144,,3428 E 116TH ST,,41.465581,-81.602936,,,0,
1145,,ROCKY RIVER DR & MARQUIS AV,,41.458963,-81.814736,,,0,
1149,,E 93RD ST & HEATH AV,,41.465467,-81.621532,,,0,
1153,,3474 MONTICELLO BLVD,,41.528474,-81.555436,,,0,
1156,,5 SEVERANCE CIRCLE (SEVERANCE MEDICAL BLDG),,41.516032,-81.548751,,,0,
1166,,3535 ROCKY RIVER DR,,41.45707,-81.815183,,,0,
1167,,3540 RIDGE RD,,41.460718,-81.738545,,,0,
1172,,3570 RIDGE RD,,41.459025,-81.738269,,,0,
1173,,3570 WARRENSVILLE CTR RD,,41.462808,-81.536252,,,0,
1188,,ROCKY RIVER DR & LUCILLE AV,,41.454167,-81.815898,,,0,
1191,,3677 LEE RD,,41.459467,-81.564845,,,0,
1193,,370 S GREEN RD,,41.542256,-81.531332,,,0,
1199,,3720 E 93RD ST,,41.457827,-81.621482,,,0,
1204,,3751 ROCKY RIVER DR,,41.451751,-81.816456,,,0,
1205,,MAYFIELD RD & MAPLE RD,,41.520587,-81.54455,,,0,
1208,,3520 W 210TH ST,,41.458496,-81.852822,,,0,
1209,,3580 W 210TH ST,,41.458085,-81.852771,,,0,
1218,,W 210TH ST & RESERVE CT,,41.456329,-81.852857,,,0,
1224,,ROCKY RIVER DR & FERNSHAW AV,,41.448942,-81.817198,,,0,
1228,,MAYFIELD RD & WARRENSVILLE CTR RD,,41.520607,-81.53751,,,0,
1229,,ROCKY RIVER DR & CHATFIELD AV,,41.446534,-81.817912,,,0,
1242,,ROCKY RIVER DR & LARCHWOOD AV,,41.444515,-81.818578,,,0,
1257,,PEARL RD & BROADVIEW RD,,41.441959,-81.704575,,,0,
1258,,ROCKY RIVER DR & VALLEY VIEW AV,,41.441591,-81.819431,,,0,
1269,,ROCKSIDE RD & LOMBARDO CENTER,,41.400035,-81.663098,,,0,
1270,,4224 MONTICELLO BLVD,,41.537579,-81.5289,,,0,
1274,,ROCKSIDE RD & LOMBARDO CENTER,,41.400216,-81.664102,,,0,
1283,,4323 CLARKWOOD PKWY,,41.44255,-81.524295,,,0,
1284,,4323 CLARKWOOD PKWY,,41.442646,-81.523548,,,0,
1290,,MAYFIELD RD & SHEFFIELD RD,,41.520393,-81.5232,,,0,
1295,,PEARL RD & WOBURN AV,,41.436382,-81.708994,,,0,place_brga
1301,,4415 BROOKPARK RD,,41.418767,-81.715734,,,0,
1306,,E 143RD ST & MAPLEROW AV,,41.438345,-81.581847,,,0,
1309,,4440 GRANADA BLVD,,41.439532,-81.520737,,,0,
1310,,4440 WARRENSVILLE CTR RD,,41.438144,-81.536,,,0,
1311,,4440 WARRENSVILLE CTR RD,,41.438258,-81.536167,,,0,
1326,,4510 WARRENSVILLE CTR RD,,41.436891,-81.536184,,,0,
1327,,4510 WARRENSVILLE CTR RD,,41.436311,-81.535952,,,0,
1328,,4512 PAYNE AV,,41.511622,-81.655244,,,0,
1330,,4521 GRANADA BLVD,,41.437353,-81.520748,,,0,
1334,,GRAYTON RD & CYCLONE DR,,41.432302,-81.838739,,,0,
1335,,4535 MONTICELLO BLVD,,41.539462,-81.515271,,,0,
1338,,MONTICELLO BLVD & AZALEA DR,,41.539336,-81.515372,,,0,
1351,,4621 E 177TH ST,,41.433878,-81.554115,,,0,
1352,,4614 E 131ST ST,,41.43432,-81.592846,,,0,
1359,,4671 COUNTRY LN,,41.432897,-81.49095,,,0,
1360,,4671 COUNTRY LN,,41.432835,-81.490874,,,0,
1366,,469 E 110TH ST,,41.543662,-81.608954,,,0,
1367,,4690 GRAYTON RD,,41.427693,-81.84298,,,0,
1388,,4770 LEE RD,,41.429747,-81.564745,,,0,
1389,,4770 LEE RD,,41.429796,-81.564902,,,0,
1396,,4795 TIEDEMAN RD,,41.428005,-81.762083,,,0,
1398,,4800 COUNTRY LN,,41.429909,-81.492279,,,0,
1406,,4816 TIEDEMAN RD,,41.427553,-81.762074,,,0,
1407,,4820 LEE RD,,41.428359,-81.564758,,,0,
1408,,MONTICELLO BLVD & ELAINE ST,,41.538863,-81.503467,,,0,
1409,,4840 HENRY ST,,41.428108,-81.599239,,,0,
1410,,4840 HENRY ST,,41.428388,-81.599516,,,0,
1423,,496 E 110TH ST,,41.543628,-81.608839,,,0,
1424,,4966 WOODLAND AV,,41.488361,-81.653903,,,0,
1429,,50 SEVERANCE CIRCLE (SEVERANCE PLACE),,41.519415,-81.55222,,,0,
1433,,5000 TIEDEMAN RD,,41.424082,-81.760259,,,0,
1434,,5000 TIEDEMAN RD,,41.423757,-81.760438,,,0,
1438,,5100 PEARL RD,,41.420011,-81.726709,,,0,
1443,,5172 TURNEY RD,,41.420739,-81.608868,,,0,
1444,,HARVARD AV & E 53RD ST,,41.448232,-81.653188,,,0,
1445,,SUPERIOR AV & E 52ND ST,,41.516991,-81.654039,,,0,
1447,,STORER AV & W 54TH ST,,41.462412,-81.723357,,,0,
1451,,5228 LEE RD,,41.418171,-81.566074,,,0,
1462,,LAURENT DR & REGENCY DR,,41.379886,-81.723891,,,0,
1469,,HARVARD AV & E 55TH ST,,41.448267,-81.651261,,,0,
1471,,5408 TURNEY RD,,41.415229,-81.604835,,,0,
1472,,TURNEY RD & LIBRARY DR,,41.415088,-81.604531,,,0,
1487,,LAURENT DR & REGENCY DR,,41.379937,-81.723998,,,0,
1496,,5555 BRECKSVILLE RD,,41.41191,-81.640627,,,0,
1510,,5600 BRECKSVILLE RD,,41.408699,-81.640596,,,0,
1515,,5650 BRECKSVILLE RD,,41.408893,-81.640506,,,0,
1518,,STATE RD & HEARTHSTONE RD,,41.407041,-81.710308,,,0,
1519,,STATE RD & HEARTHSTONE RD,,41.407261,-81.710536,,,0,
1520,,5685 BROOKPARK RD,,41.418848,-81.724371,,,0,
1523,,5719 BROOKPARK RD,,41.418654,-81.725433,,,0,
1528,,5772 BRECKSVILLE RD,,41.404321,-81.639206,,,0,
1531,,5800 LAURENT DR,,41.379345,-81.725988,,,0,
1532,,5800 LEXINGTON AV,,41.511034,-81.64972,,,0,
1534,,5803 LAURENT DR,,41.379243,-81.726001,,,0,
1536,,5805 LEXINGTON AV,,41.510944,-81.649684,,,0,
1538,,5828 TURNEY RD,,41.403697,-81.596557,,,0,
1539,,5833 BRECKSVILLE RD,,41.404023,-81.638966,,,0,
1552,,5930 STUMPH RD,,41.401684,-81.769115,,,0,
1553,,5940 STUMPH RD,,41.401868,-81.768953,,,0,
1560,,ROCKSIDE RD & QUARRY LN,,41.395857,-81.649696,,,0,
1564,,MAYFIELD  RD & LANDER RD,,41.519991,-81.462589,,,0,
1565,,6030 BRECKSVILLE RD,,41.398363,-81.638973,,,0,
1567,,6037 ROYALTON RD,,41.313695,-81.727323,,,0,
1569,,6040 BRECKSVILLE RD,,41.398339,-81.6388,,,0,
1572,,W 54TH ST & WELLINGTON AV,,41.39746,-81.722745,,,0,
1576,,LEXINGTON AV & E 60TH ST,,41.510952,-81.647982,,,0,
1579,,W 54TH ST & GRANTWOOD DR,,41.395897,-81.722656,,,0,
1581,,6340 STUMPH RD(MYSTIC CREEK APARTMENTS),,41.391069,-81.767339,,,0,
1582,,6351 STUMPH RD,,41.391026,-81.767073,,,0,
1589,,625 TURNEY RD,,41.392334,-81.561904,,,0,
1592,,MAYFIELD RD & ORCHARD HEIGHTS DR,,41.520127,-81.453501,,,0,
1596,,W 54TH ST & WARWICK DR,,41.392631,-81.722671,,,0,
1599,,HARVARD AV & E 64TH ST,,41.44789,-81.645819,,,0,
1605,,6350 MAYFIELD RD,,41.519998,-81.450861,,,0,
1606,,MAYFIELD RD & GOLDEN GATE BLVD,,41.520242,-81.449449,,,0,
1624,,6500 CEDAR AV,,41.500574,-81.645213,,,0,
1628,,BROADVIEW RD & PANORAMA DR,,41.38753,-81.684957,,,0,
1638,,6621 WILSON MILLS RD,,41.538852,-81.439118,,,0,
1640,,MAYFIELD RD & SOM CENTER RD,,41.520253,-81.439762,,,0,
1642,,6684 BROADVIEW RD,,41.382874,-81.684919,,,0,
1644,,6687 ROYALTON RD,,41.313643,-81.733661,,,0,
1646,,DENISON AV & W 67TH ST,,41.460647,-81.733699,,,0,
1650,,YORK RD & BLOSSOM AV,,41.379519,-81.759543,,,0,
1655,,BRECKSVILLE RD & SELIG DR,,41.376801,-81.640215,,,0,
1659,,681 E 200TH ST,,41.587532,-81.540121,,,0,
1660,,BRECKSVILLE RD & SELIG DR,,41.377492,-81.640167,,,0,
1662,,BROADVIEW RD & MAPLEVIEW DR,,41.380183,-81.684839,,,0,
1663,,6840 RIDGE RD,,41.37889,-81.734889,,,0,
1667,,6868 PEARL RD,,41.379117,-81.787833,,,0,
1669,,6868 PEARL RD,,41.379495,-81.787417,,,0,
1671,,6887 YORK RD,,41.377464,-81.75955,,,0,
1673,,6900 GARDEN VALLEY AV,,41.475129,-81.639951,,,0,
1675,,6900 GARDEN VALLEY AV,,41.475259,-81.639808,,,0,
1677,,6905 HARVARD AV,,41.448622,-81.640949,,,0,
1686,,RIDGE RD & REGENCY DR,,41.376553,-81.734623,,,0,
1693,,DENISON AV LOOP,,41.461686,-81.736618,,,0,
1694,,DENISON AV & DENISON AV LOOP,,41.461702,-81.736479,,,0,
1695,,PEARL RD & MOHAWK TRAIL,,41.375894,-81.795574,,,0,
1698,,7055 GARDEN VALLEY AV,,41.473328,-81.639114,,,0,
1699,,7055 GARDEN VALLEY AV,,41.47331,-81.639334,,,0,
1705,,PEARL RD & OLD PLEASANT VALLEY RD,,41.372655,-81.799261,,,0,
1709,,PEARL RD & ROBERT DR,,41.370164,-81.802088,,,0,
1714,,7217 GARDEN VALLEY AV,,41.473072,-81.637778,,,0,
1717,,BRECKSVILLE RD & BRAEWOOD DR,,41.364679,-81.636663,,,0,
1718,,SUPERIOR AV & ADDISON RD,,41.519158,-81.639355,,,0,
1719,,BRECKSVILLE RD & BRAEWOOD DR,,41.364475,-81.636916,,,0,
1721,,7260 STATE RD,,41.368251,-81.716072,,,0,
1722,,7271 STATE RD,,41.367937,-81.715997,,,0,
1725,,ST. CLAIR AV & E 72ND ST,,41.528422,-81.638171,,,0,
1728,,PEARL RD & PINE HILL TRAIL,,41.366073,-81.806975,,,0,
1730,,PEARL RD & BALDWIN CT,,41.364965,-81.807945,,,0,
1735,,7391 BROADVIEW RD,,41.364921,-81.684647,,,0,
1742,,7451 GARDEN VALLEY AV,,41.47305,-81.636335,,,0,
1744,,BROADVIEW RD & E PLEASANT VALLEY RD,,41.362076,-81.684707,,,0,
1746,,7505 BROOKPARK RD,,41.418722,-81.736344,,,0,
1747,,7505 BROOKPARK RD,,41.418593,-81.736255,,,0,
1751,,7595 ROYALTON RD,,41.31345,-81.741377,,,0,
1752,,7608 CEDAR AV,,41.500192,-81.635399,,,0,
1754,,7631 GARDEN VALLEY AV,,41.472966,-81.633502,,,0,
1755,,ROYALTON RD & OAKBROOK DR,,41.312799,-81.748918,,,0,
1756,,7664 BROADVIEW RD,,41.357078,-81.684694,,,0,
1757,,BRECKSVILLE RD & BRETTIN CT,,41.353142,-81.633784,,,0,
1759,,7600 MEMPHIS AV (BROOKLYN REC CTR),,41.440059,-81.739604,,,0,
1768,,7801 DAY DR,,41.380393,-81.73835,,,0,
1770,,7803 BROOKPARK RD,,41.418547,-81.738646,,,0,
1771,,BROOKPARK RD & W 78TH ST,,41.418712,-81.73864,,,0,
1773,,7851 GARDEN VALLEY AV,,41.473056,-81.633241,,,0,
1782,,7968 BROADVIEW RD,,41.348459,-81.684701,,,0,
1787,,8015 BROOKPARK RD,,41.418544,-81.740498,,,0,
1791,,BRECKSVILLE RD & FARVIEW RD,,41.342321,-81.629991,,,0,
1809,,8367 PEARL RD,,41.347288,-81.823,,,0,
1812,,BRECKSVILLE RD & TIMBER TRAIL,,41.333992,-81.626956,,,0,
1814,,8500 UNION AV,,41.463404,-81.628341,,,0,
1825,,8500 BROOKPARK RD,,41.418645,-81.74358,,,0,
1832,,BRECKSVILLE RD & AMBER LN,,41.328082,-81.627007,,,0,
1837,,8720 MEMPHIS AV,,41.439994,-81.745667,,,0,
1838,,873 NORTHFIELD RD,,41.390529,-81.525745,,,0,
1839,,BRECKSVILLE RD & HILLBROOK OVAL,,41.325339,-81.626935,,,0,
1850,,HOUGH AV & E 89TH ST,,41.509924,-81.624393,,,0,
1853,,8989 BROOKPARK RD,,41.41849,-81.746394,,,0,
1858,,ROYALTON RD & OAKBROOK DR,,41.312692,-81.748838,,,0,
1861,,9025 LORAIN AV,,41.469582,-81.7463,,,0,
1862,,BRECKSVILLE RD & WINDWARD HILLS DR,,41.315472,-81.627047,,,0,
1863,,9075 BRECKSVILLE RD,,41.315375,-81.626719,,,0,
1866,,9100 BRECKSVILLE RD,,41.312931,-81.626724,,,0,
1869,,9100 ST. CLAIR AV,,41.534437,-81.624948,,,0,
1872,,MEMPHIS AV & DAWN CLIFF DR,,41.440134,-81.748193,,,0,
1875,,BRECKSVILLE RD & CRESTVIEW DR,,41.31094,-81.626754,,,0,
1876,,BRECKSVILLE RD & CRESTVIEW DR,,41.310811,-81.627074,,,0,
1884,,9384 W RIDGEWOOD DR,,41.384606,-81.750754,,,0,
1885,,9323 MEMPHIS AV,,41.440036,-81.75007,,,0,
1889,,9319 W RIDGEWOOD DR,,41.384488,-81.7476,,,0,
1892,,9400 MEMPHIS AV (BROOKLYN CITY GARAGE),,41.440138,-81.750002,,,0,
1894,,9410 HOUGH AV,,41.510467,-81.62088,,,0,
1895,,9413 ST. CLAIR AV,,41.535682,-81.622214,,,0,
1896,,9414 UNION AV,,41.463587,-81.619996,,,0,
1899,,9422 UNION AV,,41.463484,-81.619755,,,0,
1900,,RICHMOND RD & HARTLEY DR,,41.538101,-81.497271,,,0,
1902,,RICHMOND RD & CASE AV,,41.537068,-81.497068,,,0,
1903,,9445 BRECKSVILLE RD,,41.30456,-81.626795,,,0,
1904,,GREEN RD & NEWBERRY AV,,41.534536,-81.521556,,,0,
1905,,9480 BRECKSVILLE RD,,41.304385,-81.627116,,,0,
1906,,9842 MEMPHIS AV (PARKVIEW APTS),,41.440202,-81.75276,,,0,
1911,,9700 KINSMAN RD,,41.471028,-81.617265,,,0,
1915,,CLIFTON BLVD & WEST BLVD,,41.484698,-81.752748,,,0,
1916,,9825 MEMPHIS AV,,41.440054,-81.752931,,,0,
1917,,ROCKSIDE RD & HALLE DR,,41.393027,-81.616699,,,0,
1918,,MILES AV & E 100TH ST,,41.445093,-81.615098,,,0,
1919,,9934 KINSMAN RD,,41.470459,-81.614573,,,0,
1920,,ABBEY AV & W 25TH ST-OHIO CITY STATION,,41.484447,-81.701478,,,0,
1921,,ABBEY AV & W 25TH ST-OHIO CITY STATION,,41.48441,-81.701596,,,0,
1928,,ADELBERT RD & EUCLID AV,,41.505764,-81.608682,,,0,
1929,,ADELBERT RD & MURRAY HILL RD,,41.501915,-81.603324,,,0,
1930,,ADELBERT RD & MURRAY HILL RD,,41.501557,-81.603298,,,0,
1935,,6710 AMES RD,,41.381959,-81.746993,,,0,
1937,,8094 DAY DR (SHOPPES AT PARMA),,41.380568,-81.740803,,,0,
1938,,8444 DAY DR,,41.380601,-81.744034,,,0,
1939,,PARMA TRANSIT CENTER STOP 2,,41.380329,-81.745593,,,0,place_pash
1940,,PARMA TRANSIT CENTER STOP 1,,41.380272,-81.745215,,,0,place_pash
1960,,ARLINGTON AV & EDDY RD,,41.5344,-81.59774,,,0,
1961,,ARLINGTON AV & EDDY RD,,41.534439,-81.598534,,,0,
1962,,ARLINGTON AV & THORNHILL DR,,41.533546,-81.60032,,,0,
1982,,BABBITT RD & E 236TH ST,,41.599038,-81.517494,,,0,
1983,,BABBITT RD & BENNINGTON HAMLET CIR,,41.599018,-81.517294,,,0,
1987,,BABBITT RD & E 239TH ST,,41.597299,-81.515733,,,0,
1990,,BABBITT RD & GAY ST,,41.604702,-81.522693,,,0,
1991,,BABBITT RD & GAY ST,,41.604515,-81.522373,,,0,
1992,,BABBITT RD & HARTLAND RD,,41.60117,-81.519496,,,0,
1993,,BABBITT RD & HARTLAND RD,,41.601,-81.51918,,,0,
1994,,BABBITT RD & N LAKELAND BLVD,,41.595731,-81.514451,,,0,
1997,,BABBITT RD & LAKEMONT AV,,41.606011,-81.523956,,,0,
2000,,BABBITT RD & LAKEMONT AV,,41.606186,-81.523933,,,0,
2003,,BABBITT RD & BRIARDALE AV,,41.603407,-81.521348,,,0,
2012,,E BAGLEY RD & BIG CREEK PKWY,,41.37088,-81.808103,,,0,
2013,,E BAGLEY RD & BIG CREEK PKWY,,41.370549,-81.80735,,,0,
2018,,BAGLEY RD & ENGLE RD,,41.37181,-81.824924,,,0,
2019,,BAGLEY RD & I-71,,41.371731,-81.821629,,,0,
2028,,15999 E BAGLEY RD,,41.371679,-81.81201,,,0,
2029,,16000 E BAGLEY RD,,41.371783,-81.811959,,,0,
2034,,E BAGLEY RD & LINDEN LN,,41.36369,-81.784003,,,0,
2042,,BARTLETT AV & E 131ST ST,,41.457415,-81.590784,,,0,
2043,,BARTLETT AV & E 131ST ST,,41.45748,-81.590767,,,0,
2044,,BARTLETT AV & E 138TH ST,,41.457448,-81.587343,,,0,
2045,,BARTLETT AV & E 138TH ST,,41.457511,-81.587164,,,0,
2046,,BARTLETT AV & E 142ND ST,,41.457438,-81.583929,,,0,
2047,,BARTLETT AV & E 142ND ST,,41.457548,-81.583101,,,0,
2048,,BARTLETT AV & E 144TH ST,,41.457461,-81.58146,,,0,
2049,,BARTLETT AV & E 147TH ST,,41.457484,-81.578883,,,0,
2050,,BARTLETT AV & E 147TH ST,,41.457579,-81.5782,,,0,
2052,,BARTLETT AV & E 154TH ST,,41.457528,-81.573248,,,0,
2053,,BARTLETT AV & E 153RD ST,,41.457602,-81.5741,,,0,
2057,,BASSETT RD & W OAKLAND RD,,41.483161,-81.950086,,,0,
2058,,WOLF RD & BASSETT RD,,41.485311,-81.950439,,,0,
2066,,BELLAIRE RD & BELLESHIRE AV,,41.43567,-81.785503,,,0,
2069,,BELLAIRE RD & BROOKFIELD AV,,41.44354,-81.771092,,,0,
2070,,BELLAIRE RD & BROOKFIELD AV,,41.44355,-81.77135,,,0,
2073,,BELLAIRE RD & ELLWOOD AV,,41.436151,-81.784637,,,0,
2074,,BELLAIRE RD & ELLWOOD AV,,41.436207,-81.784808,,,0,
2075,,BELLAIRE RD & EMERY AV,,41.444268,-81.770388,,,0,
2076,,BELLAIRE RD & GILMORE AV,,41.435213,-81.785785,,,0,
2077,,BELLAIRE RD & FIRSBY AV,,41.438111,-81.778879,,,0,
2078,,BELLAIRE RD & GUARDIAN BLVD,,41.442214,-81.773033,,,0,
2082,,BELLAIRE RD & MATHERSON AV,,41.442007,-81.77355,,,0,
2083,,BELLAIRE RD & PURITAS AV,,41.433832,-81.787701,,,0,
2084,,BELLAIRE RD & SHERRY AV,,41.437293,-81.782662,,,0,
2085,,BELLAIRE RD & SOBIESKI AV,,41.438981,-81.777644,,,0,
2089,,BELLAIRE RD & W 130TH ST,,41.437385,-81.780354,,,0,
2091,,BELLAIRE RD & W 132ND ST,,41.437302,-81.781987,,,0,
2092,,BELLAIRE RD & WANDA AV,,41.439967,-81.776239,,,0,
2094,,BELLE AV & CLIFTON BLVD,,41.492101,-81.79684,,,0,
2095,,BELLE AV & CLIFTON BLVD,,41.492575,-81.796942,,,0,
2101,,BEREA FWY & EASTLAND RD,,41.39763,-81.842884,,,0,
2108,,BESSEMER AV & E 65TH ST,,41.470815,-81.644897,,,0,
2109,,BESSEMER AV & E 65TH ST,,41.47084,-81.644713,,,0,
2132,,BRADLEY RD & LAKE RD,,41.497668,-81.9596,,,0,
2133,,BRADLEY RD & LAKE RD,,41.49758,-81.959518,,,0,
2136,,BRADLEY RD & WEBSTER RD,,41.494631,-81.959698,,,0,
2137,,BRADLEY RD & WEBSTER RD,,41.494465,-81.959611,,,0,
2138,,BRADLEY RD & WOLF RD,,41.486393,-81.959953,,,0,
2139,,BROADVIEW RD & BROOKPARK RD,,41.419543,-81.695427,,,0,
2142,,BROADVIEW RD & RALPH AV,,41.423965,-81.696802,,,0,
2143,,BROADVIEW RD & SCHELL AV,,41.42549,-81.696974,,,0,
2145,,BROADWAY & GARDEN RD,,41.356469,-81.497376,,,0,
2149,,BROADWAY & MC BRIDE AV,,41.470021,-81.654339,,,0,
2151,,BRECKSVILLE RD & ASHLAWN DR,,41.349839,-81.633309,,,0,
2152,,BRECKSVILLE RD & BUSKIRK BLVD,,41.390265,-81.641749,,,0,
2153,,BRECKSVILLE RD & MEADOWBROOK BLVD,,41.380608,-81.640972,,,0,
2154,,BRECKSVILLE RD & TANGLEWOOD DR,,41.388771,-81.64164,,,0,
2155,,BRECKSVILLE RD & AMBER LN,,41.327909,-81.626673,,,0,
2156,,9005 BRECKSVILLE RD (BRECKSVILLE P-N-R),,41.317322,-81.62675,,,0,
2157,,BRECKSVILLE RD & ARLINGTON ST,,41.318581,-81.626966,,,0,
2158,,9012 BRECKSVILLE RD (BRECKSVILLE P-N-R),,41.317029,-81.626979,,,0,
2159,,BRECKSVILLE RD & ASHLAWN DR,,41.349611,-81.632906,,,0,
2160,,BRECKSVILLE RD & BRETTIN CT,,41.353313,-81.634123,,,0,
2161,,BRECKSVILLE RD & BROOKSIDE RD,,41.358094,-81.635018,,,0,
2162,,BRECKSVILLE RD & BROOKSIDE RD,,41.358484,-81.635424,,,0,
2163,,BRECKSVILLE RD & BUSKIRK BLVD,,41.389837,-81.641424,,,0,
2164,,BRECKSVILLE RD & CHAPEL HILL DR,,41.302739,-81.626801,,,0,
2166,,BRECKSVILLE RD & CHERRY ST,,41.372743,-81.638723,,,0,
2167,,BRECKSVILLE RD & CHERRY ST,,41.373003,-81.639086,,,0,
2168,,BRECKSVILLE RD & CHESTNUT RD,,41.384624,-81.641092,,,0,
2169,,BRECKSVILLE RD & CHESTNUT RD,,41.384701,-81.641271,,,0,
2170,,BRECKSVILLE RD & DAISY AV,,41.386148,-81.641204,,,0,
2171,,BRECKSVILLE RD & DAISY AV,,41.386472,-81.641413,,,0,
2172,,BRECKSVILLE RD & DANIA DR,,41.356012,-81.634498,,,0,
2173,,BRECKSVILLE RD & DORA BLVD,,41.370952,-81.638253,,,0,
2174,,BRECKSVILLE RD & DORA BLVD,,41.37121,-81.638627,,,0,
2175,,BRECKSVILLE RD & FAIRVIEW RD,,41.342412,-81.630413,,,0,
2176,,BRECKSVILLE RD & FITZWATER RD,,41.339468,-81.627651,,,0,
2177,,BRECKSVILLE RD & FITZWATER RD,,41.339634,-81.628141,,,0,
2178,,BRECKSVILLE RD & GRANDVIEW DR,,41.356093,-81.634816,,,0,
2179,,5554 BRECKSVILLE RD,,41.411941,-81.640787,,,0,
2180,,BRECKSVILLE RD & GREYSTONE PKWY,,41.30044,-81.626841,,,0,
2181,,BRECKSVILLE RD & HEMLOCK RD,,41.374933,-81.639305,,,0,
2182,,BRECKSVILLE RD & HEMLOCK RD,,41.375088,-81.639642,,,0,
2183,,BRECKSVILLE RD & HILLSIDE RD,,41.368973,-81.637751,,,0,
2184,,BRECKSVILLE RD & HILLSIDE RD,,41.369402,-81.638159,,,0,
2186,,BRECKSVILLE RD & KLEBER CT,,41.406177,-81.639626,,,0,
2187,,BRECKSVILLE RD & LAFAYETTE BLVD,,41.391484,-81.641546,,,0,
2188,,BRECKSVILLE RD & LAFAYETTE BLVD,,41.39187,-81.641863,,,0,
2189,,BRECKSVILLE RD & LONGANO DR,,41.400777,-81.638519,,,0,
2190,,BRECKSVILLE RD & LONGANO DR,,41.401139,-81.638722,,,0,
2191,,BRECKSVILLE RD & MILL RD,,41.322604,-81.626739,,,0,
2192,,BRECKSVILLE RD & MILL RD,,41.322652,-81.626931,,,0,
2193,,BRECKSVILLE RD & OAKES RD,,41.307596,-81.626772,,,0,
2194,,BRECKSVILLE RD & OAKES RD,,41.307705,-81.627071,,,0,
2196,,BRECKSVILLE RD & PARKLAND RD,,41.360371,-81.635533,,,0,
2197,,BRECKSVILLE RD & PARKLAND RD,,41.360394,-81.635897,,,0,
2198,,BRECKSVILLE RD & PARKVIEW RD,,41.296681,-81.626887,,,0,
2199,,BRECKSVILLE RD & PARKVIEW RD,,41.29723,-81.627197,,,0,
2200,,BRECKSVILLE RD & E PLEASANT VALLEY RD,,41.362251,-81.636054,,,0,
2202,,BRECKSVILLE RD & E PLEASANT VALLEY RD,,41.361688,-81.636215,,,0,
2203,,BRECKSVILLE RD & ROCKSIDE RD,,41.392954,-81.641547,,,0,place_xbrrk
2204,,BRECKSVILLE RD & ROCKSIDE RD,,41.395554,-81.640153,,,0,place_xbrrk
2205,,6160 BRECKSVILLE RD,,41.395744,-81.640266,,,0,place_xbrrk
2206,,BRECKSVILLE RD & ROYALTON RD,,41.319633,-81.626739,,,0,
2207,,BRECKSVILLE RD & ROYALTON RD,,41.320319,-81.626937,,,0,
2212,,BRECKSVILLE RD & SPRAGUE RD,,41.351781,-81.633469,,,0,
2213,,BRECKSVILLE RD & SPRAGUE RD,,41.351527,-81.633699,,,0,
2214,,BRECKSVILLE RD & STONE RD,,41.382379,-81.640951,,,0,
2215,,BRECKSVILLE RD & SUNSET AV,,41.382521,-81.641113,,,0,
2216,,BRECKSVILLE RD & TANGLEWOOD DR,,41.388531,-81.641325,,,0,
2217,,BRECKSVILLE RD & ROCKLEDGE DR,,41.330987,-81.626659,,,0,
2218,,BRECKSVILLE RD & WALLINGS RD,,41.344432,-81.631573,,,0,
2219,,BRECKSVILLE RD & WALLINGS RD,,41.345149,-81.632105,,,0,
2220,,BRECKSVILLE RD & WESTVIEW DR,,41.298551,-81.626858,,,0,
2221,,BRECKSVILLE RD & WESTVIEW DR,,41.298671,-81.627185,,,0,
2222,,BRECKSVILLE RD & WHITEWOOD RD,,41.33692,-81.626631,,,0,
2223,,BRECKSVILLE RD & WHITEWOOD RD,,41.337317,-81.626947,,,0,
2250,,BROOKPARK RD & W 161ST ST,,41.418531,-81.811078,,,0,
2251,,BROADVIEW RD & ROCKSIDE RD,,41.405472,-81.690779,,,0,
2257,,BROADVIEW RD & BROADROCK CT,,41.408072,-81.691815,,,0,
2258,,BROADVIEW RD & BROADROCK CT,,41.408256,-81.692148,,,0,
2260,,BROADVIEW RD & BROOKPARK RD,,41.419582,-81.695124,,,0,
2262,,BROADVIEW RD & BROOKVIEW BLVD,,41.417949,-81.694691,,,0,
2266,,BROADVIEW RD & CHERRY LN,,41.370272,-81.684723,,,0,
2268,,BROADVIEW RD & CHESTNUT RD,,41.384677,-81.684711,,,0,
2272,,BROADVIEW RD & CARLTON RD,,41.403308,-81.690241,,,0,
2273,,BROADVIEW RD & E RIDGEWOOD DR,,41.392434,-81.686046,,,0,
2275,,BROADVIEW RD & EVELYN AV,,41.36028,-81.684454,,,0,
2277,,BROADVIEW RD & GRANTWOOD DR,,41.396325,-81.687531,,,0,
2278,,BROADVIEW RD & GRANTWOOD DR,,41.396899,-81.688,,,0,
2280,,BROADVIEW RD & GROVEWOOD AV,,41.413724,-81.693656,,,0,
2281,,BROADVIEW RD & HILLSDALE AV,,41.401229,-81.689264,,,0,
2282,,BROADVIEW RD & HILLSDALE AV,,41.401299,-81.689421,,,0,
2283,,BROADVIEW RD & HILLSIDE RD,,41.368898,-81.684488,,,0,
2284,,BROADVIEW RD & HILLSIDE RD,,41.368708,-81.684729,,,0,
2285,,BROADVIEW RD & JUSTO LN,,41.379174,-81.684663,,,0,
2287,,BROADVIEW RD & KEYSTONE RD,,41.399925,-81.688927,,,0,
2292,,BROADVIEW RD & MAPLE DR,,41.36755,-81.684684,,,0,
2294,,BROADVIEW RD & MARIETTA AV,,41.414737,-81.693807,,,0,
2295,,BROADVIEW RD & MEADOWLANE RD,,41.35363,-81.684495,,,0,
2299,,BROADVIEW RD & MONTCLAIR AV,,41.435876,-81.697873,,,0,
2300,,BROADVIEW RD & NATCHEZ AV,,41.433405,-81.697244,,,0,
2301,,BROADVIEW RD & GETTYSBURG DR,,41.372908,-81.684595,,,0,
2306,,BROADVIEW RD & OLD ROCKSIDE RD,,41.406755,-81.691566,,,0,
2307,,BROADVIEW RD & ORCHARDVIEW RD,,41.355677,-81.684453,,,0,
2309,,BROADVIEW RD & PANORAMA DR,,41.387507,-81.684715,,,0,
2310,,BROADVIEW RD & PARKHAVEN DR,,41.377484,-81.684815,,,0,
2317,,BROADVIEW RD & PORTMAN AV,,41.427599,-81.697118,,,0,
2319,,BROADVIEW RD & W RIDGEWOOD DR,,41.392222,-81.686203,,,0,
2322,,BROADVIEW RD & RUSTIC TRAIL,,41.384489,-81.684914,,,0,
2323,,BROADVIEW RD & SANDPIPER DR,,41.410214,-81.692504,,,0,
2324,,BROADVIEW RD & SARATOGA AV,,41.431773,-81.697375,,,0,
2325,,BROADVIEW RD & W SCHAFF RD,,41.429766,-81.697392,,,0,
2327,,BROADVIEW RD & SEARSDALE AV,,41.438023,-81.699465,,,0,
2328,,BROADVIEW RD & SILVERDALE AV,,41.422198,-81.696154,,,0,
2332,,BROADVIEW RD & SNOW RD,,41.40564,-81.691141,,,0,
2333,,BROADVIEW RD & E SPRAGUE RD,,41.350788,-81.684485,,,0,
2334,,BROADVIEW RD & E SPRAGUE RD,,41.351126,-81.684704,,,0,
2335,,BROADVIEW RD & STARLIGHT DR,,41.37476,-81.684625,,,0,
2336,,BROADVIEW RD & GUADALUPE DR,,41.37483,-81.684817,,,0,
2337,,BROADVIEW RD & TOLLIS PKWY,,41.32891,-81.684482,,,0,
2340,,BROADVIEW RD & W 22ND ST,,41.438254,-81.699514,,,0,
2342,,BROADVIEW RD & VALLEY PARK DR,,41.340571,-81.684586,,,0,
2343,,BROADVIEW RD & VALLEY PARK DR,,41.33959,-81.684654,,,0,
2346,,BROADVIEW RD & W 28TH ST,,41.439126,-81.701126,,,0,
2348,,BROADVIEW RD & ROYALTON RD,,41.31414,-81.684584,,,0,
2349,,BROADVIEW RD & W SCHAAF RD,,41.429161,-81.697171,,,0,
2350,,BROADVIEW RD & W WALLINGS RD,,41.345551,-81.684715,,,0,
2354,,BROADWAY & AETNA RD,,41.46136,-81.642589,,,0,
2355,,BROADWAY & AETNA RD,,41.460923,-81.641832,,,0,
2356,,BROADWAY & ALEXANDER RD,,41.358247,-81.499511,,,0,
2357,,BROADWAY & BARKWILL AV,,41.468327,-81.65272,,,0,
2360,,BROADWAY & BOOTH AV,,41.450449,-81.629557,,,0,
2361,,BROADWAY & BRUNNER AV,,41.449685,-81.628873,,,0,
2362,,BROADWAY & CABLE AV,,41.465828,-81.65005,,,0,
2363,,BROADWAY & ENGLE AV,,41.465356,-81.649223,,,0,
2364,,BROADWAY & CANTON AV,,41.454229,-81.634175,,,0,
2368,,ONTARIO ST & CARNEGIE AV,,41.494676,-81.6856,,,0,
2371,,BROADWAY & CLEMENT DR,,41.410264,-81.562795,,,0,
2373,,BROADWAY & DALEWOOD AV,,41.40919,-81.561334,,,0,
2374,,BROADWAY & DILLE AV,,41.477331,-81.661975,,,0,
2375,,BROADWAY & DILLE AV,,41.477308,-81.661754,,,0,
2381,,BROADWAY & E 55TH ST,,41.467302,-81.651635,,,0,
2382,,BROADWAY & E 55TH ST,,41.466686,-81.650772,,,0,
2383,,BROADWAY & E 65TH ST,,41.462087,-81.644485,,,0,
2384,,BROADWAY & E 65TH ST,,41.46233,-81.64477,,,0,
2386,,ONTARIO AV & E 9TH ST,,41.492584,-81.679748,,,0,
2390,,BROADWAY & FINN AV,,41.473495,-81.658135,,,0,
2391,,BROADWAY & FINN AV,,41.473664,-81.658115,,,0,
2392,,BROADWAY & FLEET AV,,41.457152,-81.637581,,,0,
2394,,BROADWAY & OSAGE AV,,41.456619,-81.636762,,,0,
2395,,BROADWAY & FLORA DR,,41.405208,-81.556167,,,0,
2398,,BROADWAY & FORMAN AV,,41.4588,-81.639511,,,0,
2400,,BROADWAY & FORMAN AV,,41.458946,-81.639527,,,0,
2404,,BROADWAY & GALLUP AV,,41.475369,-81.659855,,,0,
2405,,BROADWAY & GARDEN RD,,41.356514,-81.49716,,,0,
2410,,BROADWAY & GREENCROFT RD,,41.404219,-81.554587,,,0,
2412,,BROADWAY & HARVARD AV,,41.449213,-81.628323,,,0,
2413,,BROADWAY & HARVARD AV,,41.448602,-81.627413,,,0,
2416,,BROADWAY & MORTON AV,,41.464035,-81.647642,,,0,
2417,,BROADWAY & JOHN ST,,41.375027,-81.518285,,,0,
2418,,BROADWAY & JOHN ST,,41.374869,-81.518069,,,0,
2419,,BROADWAY & JONES RD,,41.451306,-81.630767,,,0,
2420,,BROADWAY & JONES RD,,41.451486,-81.630777,,,0,
2421,,BROADWAY & LONGWOOD AV,,41.408,-81.559952,,,0,
2422,,BROADWAY & MACEDONIA RD,,41.365453,-81.508435,,,0,
2426,,BROADWAY & MC BRIDE AV,,41.469928,-81.654429,,,0,
2427,,BROADWAY & MILES AV,,41.444925,-81.623454,,,0,
2431,,BROADWAY & MORTON AV,,41.463825,-81.647115,,,0,
2432,,BROADWAY & PERSHING AV,,41.471787,-81.656393,,,0,
2433,,BROADWAY & PERSHING AV,,41.47146,-81.65587,,,0,
2434,,2300 BROADWAY,,41.489445,-81.674808,,,0,
2439,,BROADWAY & SOUTH BLVD,,41.405515,-81.556353,,,0,
2441,,BROADWAY & SECTOR DR,,41.404187,-81.554782,,,0,
2445,,BROADWAY & TRYON RD,,41.365114,-81.507784,,,0,
2447,,BROADWAY & UNION AV,,41.463033,-81.646301,,,0,
2449,,BROADWAY & W GRACE ST,,41.394968,-81.539749,,,0,
2450,,BROADWAY & WALKER AV,,41.44704,-81.625789,,,0,
2451,,BROADWAY & WALKER AV,,41.447035,-81.625575,,,0,
2452,,BROADWAY & WATERBURY AV,,41.407996,-81.559716,,,0,
2453,,BROADWAY & WIRE AV,,41.452926,-81.632456,,,0,
2456,,BROADWAY & WORLEY AV,,41.45277,-81.632471,,,0,
2461,,BROOKPARK RD & STATE RD,,41.418988,-81.711067,,,0,
2468,,BROOKPARK RD & HENRY FORD BLVD,,41.418732,-81.819524,,,0,
2471,,BROOKPARK RD & HAUSERMAN RD,,41.418408,-81.757952,,,0,
2475,,BROOKPARK RD & KNOLLWOOD DR,,41.418445,-81.752339,,,0,
2476,,BROOKPARK RD & KNOLLWOOD DR,,41.418575,-81.751826,,,0,
2477,,BROOKPARK RD & PEARL RD,,41.418614,-81.728799,,,0,
2478,,BROOKPARK RD & PEARL RD,,41.418793,-81.727612,,,0,
2479,,BROOKPARK RD & RIDGE RD,,41.418577,-81.734663,,,0,
2480,,BROOKPARK RD & RIDGE RD,,41.418712,-81.734099,,,0,
2481,,BROOKPARK STATION STOP #1,,41.419414,-81.822157,,,0,
2482,,BROOKPARK RD & ROSESIDE DR,,41.41881,-81.713284,,,0,
2483,,BROOKPARK RD & ROSESIDE DR,,41.418943,-81.714025,,,0,
2484,,BROOKPARK RD & SMITH RD,,41.418409,-81.80347,,,0,
2485,,BROOKPARK RD & STATE RD,,41.418858,-81.710604,,,0,
2486,,BROOKPARK RD & TIEDEMAN RD,,41.41854,-81.757639,,,0,
2488,,12859 BROOKPARK RD (FREEWAY LANES),,41.418355,-81.77885,,,0,
2491,,BROOKPARK RD & W 130TH ST,,41.418543,-81.781651,,,0,
2492,,BROOKPARK RD & W 137TH ST,,41.418391,-81.786523,,,0,
2493,,BROOKPARK RD & W 137TH ST,,41.418507,-81.786128,,,0,
2494,,BROOKPARK RD & W 139TH ST,,41.418393,-81.790218,,,0,
2496,,BROOKPARK RD & W 140TH ST,,41.418394,-81.792262,,,0,
2497,,BROOKPARK RD & W 140TH ST,,41.418524,-81.792297,,,0,
2500,,BROOKPARK RD & W 150TH ST,,41.418519,-81.802956,,,0,
2501,,BROOKPARK RD & W 164TH ST,,41.418554,-81.813898,,,0,
2502,,BROOKPARK RD & W 164TH ST,,41.418674,-81.813527,,,0,
2503,,BROOKPARK RD & W 24TH ST,,41.419061,-81.698813,,,0,
2504,,BROOKPARK RD & W 24TH ST,,41.41926,-81.698438,,,0,
2507,,BROOKPARK RD & W 28TH ST,,41.418981,-81.703427,,,0,
2508,,BROOKPARK RD & W 28TH ST,,41.419129,-81.701934,,,0,
2509,,W 33RD ST LOOP,,41.419178,-81.706794,,,0,
2511,,BROOKPARK RD & W 46TH ST,,41.418854,-81.716825,,,0,
2512,,BROOKPARK RD & W 48TH ST,,41.418723,-81.718528,,,0,
2513,,BROOKPARK RD & W 49TH ST,,41.41887,-81.719446,,,0,
2514,,BROOKPARK RD & W 54TH ST,,41.418676,-81.723106,,,0,
2515,,BROOKPARK RD & W 54TH ST,,41.418843,-81.72359,,,0,
2516,,BROOKPARK RD & W 60TH ST,,41.4186,-81.726771,,,0,
2517,,BROOKPARK RD & W 83RD ST,,41.418515,-81.742071,,,0,
2522,,BRUSH RD & LOGANBERRY DR,,41.582216,-81.495364,,,0,
2524,,BRUSH RD & RICHMOND RD,,41.587018,-81.500003,,,0,
2525,,RICHMOND RD & BRUSH RD,,41.586942,-81.500608,,,0,
2527,,BRUSH RD & SANDY HILL DR,,41.583446,-81.495255,,,0,
2528,,BRUSH RD & SANDY HILL DR,,41.583678,-81.495362,,,0,
2532,,BUCKEYE RD & E 102ND ST,,41.482127,-81.614069,,,0,
2533,,BUCKEYE RD & E 104TH ST,,41.482129,-81.613108,,,0,
2535,,BUCKEYE RD & E 111TH ST,,41.481557,-81.608318,,,0,
2536,,BUCKEYE RD & E 112TH ST,,41.481487,-81.606798,,,0,
2537,,BUCKEYE RD & E 114TH ST,,41.481215,-81.605202,,,0,
2538,,BUCKEYE RD & E 116TH ST,,41.480988,-81.603122,,,0,
2539,,BUCKEYE RD & E 116TH ST,,41.481034,-81.602654,,,0,
2540,,BUCKEYE RD & E 119TH ST,,41.480677,-81.600205,,,0,
2541,,BUCKEYE RD & E 119TH ST,,41.480766,-81.600162,,,0,
2543,,BUCKEYE RD & E 122ND ST,,41.480452,-81.59727,,,0,
2544,,BUCKEYE RD & E 127TH ST,,41.480073,-81.594612,,,0,
2545,,BUCKEYE RD & E 127TH ST,,41.480101,-81.594013,,,0,
2552,,BUCKEYE RD & E 99TH ST,,41.482353,-81.616401,,,0,
2555,,BUCKEYE RD & SHAKER BLVD,,41.482606,-81.61698,,,0,
2593,,CAHOON RD & LINCOLN RD,,41.480569,-81.924337,,,0,
2594,,CAHOON RD & LINCOLN RD,,41.480511,-81.924267,,,0,
2597,,CAHOON RD & REXFORD RD,,41.479214,-81.925196,,,0,
2599,,CAINE AV & E 131ST ST,,41.444616,-81.590845,,,0,
2600,,CAINE AV & E 136TH ST,,41.444039,-81.587533,,,0,
2601,,CAINE AV & E 136TH ST,,41.444034,-81.588077,,,0,
2602,,CAINE AV & E 139TH ST,,41.443442,-81.584784,,,0,
2603,,CAINE AV & E 139TH ST,,41.443393,-81.585052,,,0,
2604,,CAINE AV & E 143RD ST,,41.44282,-81.582235,,,0,
2648,,CEDAR AV & AMBLESIDE RD,,41.499525,-81.603555,,,0,
2649,,CEDAR AV & ASHLAND RD,,41.500502,-81.6485,,,0,
2650,,CEDAR AV & ASHLAND RD,,41.500592,-81.64842,,,0,
2651,,CEDAR RD & BELLFIELD AV,,41.501155,-81.594756,,,0,
2655,,CEDAR RD & BROCKWAY RD,,41.501289,-81.549022,,,0,
2656,,CEDAR RD & CAMPUS RD,,41.501295,-81.515744,,,0,
2657,,CEDAR RD & CAMPUS RD,,41.501421,-81.515305,,,0,
2658,,CEDAR RD & CLARKWOOD RD,,41.500511,-81.644297,,,0,
2659,,CEDAR RD & CLARKWOOD RD,,41.500591,-81.64423,,,0,
2661,,CEDAR RD & COMMUNITY DR,,41.501408,-81.503237,,,0,
2662,,CEDAR RD & COTTAGE GROVE AV,,41.501262,-81.570297,,,0,
2663,,CEDAR RD & COTTAGE GROVE AV,,41.501158,-81.570304,,,0,
2664,,CEDAR RD & COVENTRY RD,,41.501112,-81.579765,,,0,
2665,,CEDAR RD & COVENTRY RD,,41.501239,-81.579574,,,0,
2666,,CEDAR RD & DEMINGTON DR,,41.501068,-81.585067,,,0,
2667,,CEDAR RD & DEMINGTON DR,,41.5012,-81.584631,,,0,
2668,,CEDAR AV & E 100TH ST,,41.499367,-81.618505,,,0,
2669,,CEDAR AV & E 100TH ST,,41.49943,-81.618132,,,0,
2670,,CEDAR AV & E 105TH ST,,41.499245,-81.615455,,,0,
2671,,CEDAR AV & E 105TH ST,,41.499306,-81.615082,,,0,
2672,,CEDAR AV & E 106TH ST,,41.499131,-81.613383,,,0,
2673,,CEDAR AV & E 107TH ST,,41.499091,-81.6122,,,0,
2674,,CEDAR AV & E 107TH ST,,41.499167,-81.611995,,,0,
2675,,CEDAR AV & E 22ND ST,,41.498589,-81.674245,,,0,
2677,,CEDAR AV & E 28TH ST,,41.498732,-81.668581,,,0,
2678,,CEDAR AV & E 28TH ST,,41.498829,-81.66835,,,0,
2679,,CEDAR AV & E 30TH ST,,41.498882,-81.666861,,,0,
2680,,CEDAR AV & E 30TH ST,,41.499019,-81.666451,,,0,
2682,,CEDAR AV & E 33RD ST,,41.499006,-81.664427,,,0,
2683,,CEDAR AV & E 35TH ST,,41.499192,-81.663509,,,0,
2684,,CEDAR AV & E 36TH ST,,41.499241,-81.662427,,,0,
2685,,CEDAR AV & E 36TH ST,,41.49935,-81.661937,,,0,
2686,,CEDAR AV & E 38TH ST,,41.499477,-81.660123,,,0,
2687,,CEDAR AV & E 38TH ST,,41.499603,-81.65996,,,0,
2688,,CEDAR AV & E 40TH ST,,41.49981,-81.657274,,,0,
2689,,CEDAR AV & E 40TH ST,,41.499941,-81.656973,,,0,
2690,,CEDAR AV & E 46TH ST,,41.500072,-81.65475,,,0,
2691,,CEDAR AV & E 46TH ST,,41.500201,-81.654508,,,0,
2694,,CEDAR AV & E 55TH ST,,41.500377,-81.65224,,,0,
2695,,CEDAR AV & E 55TH ST,,41.500493,-81.652272,,,0,
2696,,CEDAR AV & E 65TH ST,,41.500501,-81.645521,,,0,
2698,,CEDAR AV & E 69TH ST,,41.500605,-81.642032,,,0,
2699,,CEDAR AV & E 71ST ST,,41.500372,-81.639685,,,0,
2700,,CEDAR AV & E 71ST ST,,41.500493,-81.639347,,,0,
2702,,CEDAR AV & E 74TH ST,,41.500272,-81.637094,,,0,
2703,,CEDAR AV & E 74TH ST,,41.500347,-81.636689,,,0,
2704,,CEDAR AV & E 77TH ST,,41.500281,-81.635363,,,0,
2705,,CEDAR AV & E 79TH ST,,41.500086,-81.63361,,,0,
2706,,CEDAR AV & E 79TH ST,,41.500184,-81.633382,,,0,
2707,,CEDAR AV & E 81ST ST,,41.499985,-81.631546,,,0,
2708,,CEDAR AV & E 81ST ST,,41.500102,-81.631519,,,0,
2709,,CEDAR AV & E 83RD ST,,41.499938,-81.629869,,,0,
2710,,CEDAR AV & E 83RD ST,,41.499995,-81.629485,,,0,
2711,,CEDAR AV & E 84TH ST,,41.499859,-81.62865,,,0,
2712,,CEDAR AV & E 84TH ST,,41.499933,-81.628276,,,0,
2713,,CEDAR AV & E 86TH ST,,41.499772,-81.626451,,,0,
2714,,CEDAR AV & E 86TH ST,,41.499865,-81.626886,,,0,
2715,,CEDAR AV & E 89TH ST,,41.499659,-81.624685,,,0,
2716,,CEDAR AV & E 89TH ST,,41.499735,-81.624342,,,0,
2717,,CEDAR AV & E 93RD ST,,41.499552,-81.621902,,,0,
2718,,CEDAR AV & E 93RD ST,,41.499623,-81.621528,,,0,
2719,,CEDAR AV & E 97TH ST,,41.499541,-81.620047,,,0,
2720,,CEDAR AV & E 97TH ST,,41.499427,-81.619538,,,0,
2721,,CEDAR AV & MARTIN LUTHER KING DR,,41.499769,-81.607799,,,0,
2725,,CEDAR AV & STOKES BLVD,,41.499017,-81.610401,,,0,
2726,,CEDAR AV & STOKES BLVD,,41.4991,-81.610408,,,0,
2727,,CEDAR RD & FENWICK RD,,41.501288,-81.540977,,,0,
2728,,CEDAR RD & FENWICK RD,,41.501437,-81.540794,,,0,
2732,,CEDAR RD & GOODNOR RD,,41.501225,-81.560898,,,0,
2733,,CEDAR RD & GOODNOR RD,,41.501354,-81.560769,,,0,
2734,,CEDAR RD & GRANDVIEW AV,,41.500997,-81.593538,,,0,
2736,,CEDAR RD & S GREEN RD,,41.501432,-81.518472,,,0,
2737,,CEDAR RD & HALCYON RD,,41.501285,-81.507744,,,0,
2738,,CEDAR RD & HALCYON RD,,41.501404,-81.507685,,,0,
2740,,CEDAR RD & KERWIN RD,,41.501308,-81.521925,,,0,
2742,,CEDAR RD & LAMBERTON RD,,41.501257,-81.576826,,,0,
2748,,CEDAR RD & LANGERDALE RD,,41.501439,-81.520955,,,0,
2749,,CEDAR RD & LEE RD,,41.501184,-81.565274,,,0,
2751,,CEDAR RD & LEE RD,,41.501311,-81.565131,,,0,
2752,,CEDAR RD & LYNDWAY RD,,41.501291,-81.512541,,,0,
2753,,CEDAR RD & LYNDWAY RD,,41.501424,-81.512595,,,0,
2754,,CEDAR RD & MAPLEWOOD RD,,41.501264,-81.573349,,,0,
2755,,CEDAR RD & MIDDLEFIELD RD,,41.501088,-81.582602,,,0,
2756,,CEDAR RD & MIDDLEFIELD RD,,41.50122,-81.582208,,,0,
2758,,CEDAR RD & MIRAMAR BLVD,,41.501301,-81.531668,,,0,
2759,,CEDAR RD & MIRAMAR BLVD,,41.501448,-81.530806,,,0,
2761,,CEDAR RD & W MURRAY HILL RD,,41.49968,-81.602926,,,0,
2763,,CEDAR RD & NORFOLK RD,,41.501028,-81.590062,,,0,
2764,,CEDAR RD & NORFOLK RD,,41.501152,-81.589979,,,0,
2765,,CEDAR RD & OAKDALE RD,,41.501173,-81.567558,,,0,
2766,,CEDAR RD & OAKDALE RD,,41.501293,-81.56769,,,0,
2767,,CEDAR RD & RICHMOND RD,,41.501196,-81.49712,,,0,
2769,,CEDAR RD & RICHMOND RD,,41.501353,-81.498573,,,0,
2771,,CEDAR RD & S BELVOIR BLVD,,41.501313,-81.525202,,,0,
2775,,CEDAR RD & S BELVOIR BLVD,,41.501445,-81.524142,,,0,
2776,,CEDAR RD & S OVERLOOK RD,,41.500945,-81.597049,,,0,
2777,,CEDAR RD & S OVERLOOK RD,,41.501075,-81.59689,,,0,
2778,,CEDAR RD & STILLMAN RD,,41.501129,-81.577421,,,0,
2781,,CEDAR RD & S TAYLOR RD,,41.501267,-81.556374,,,0,
2782,,CEDAR RD & S TAYLOR RD,,41.501429,-81.555747,,,0,
2783,,CEDAR RD & THAYNE RD,,41.501283,-81.551756,,,0,
2784,,CEDAR RD & THAYNE RD,,41.50141,-81.55185,,,0,
2785,,CEDAR RD & WARRENSVILLE CTR RD,,41.501287,-81.536768,,,0,
2788,,CEDAR RD & WARRENSVILLE CTR RD,,41.501447,-81.53651,,,0,
2789,,CEDAR RD & WASHINGTON BLVD,,41.501428,-81.545192,,,0,
2792,,CEDAR RD & WRENFORD RD,,41.501316,-81.526842,,,0,
2793,,CEDAR RD & WRENFORD RD,,41.501451,-81.526356,,,0,
2794,,CENTER RIDGE RD & LAKEVIEW AV,,41.464557,-81.843665,,,0,
2796,,CENTER RIDGE RD & ARTHUR AV,,41.456324,-81.900612,,,0,
2798,,CENTER RIDGE RD & BAY LANDING DR,,41.443419,-81.933588,,,0,
2799,,CENTER RIDGE RD & BEVERLY HILLS DR,,41.457253,-81.870834,,,0,
2800,,CENTER RIDGE RD & BEARS RUN,,41.457372,-81.870929,,,0,
2802,,CENTER RIDGE RD & CANTERBURY RD,,41.452619,-81.912422,,,0,
2803,,CENTER RIDGE RD & CANTERBURY RD,,41.45287,-81.912136,,,0,
2804,,CENTER RIDGE RD & CHASE DR,,41.440089,-81.936734,,,0,
2805,,CENTER RIDGE RD & CLAGUE RD,,41.456656,-81.883492,,,0,
2806,,CENTER RIDGE RD & CLAGUE RD,,41.456524,-81.882196,,,0,
2808,,CENTER RIDGE RD & COLUMBIA RD,,41.455825,-81.902598,,,0,
2809,,CENTER RIDGE RD & COLUMBIA RD,,41.455849,-81.90302,,,0,
2814,,CENTER RIDGE RD & DOVER CENTER RD,,41.44943,-81.92174,,,0,
2815,,CENTER RIDGE RD & DOVER CENTER RD,,41.4493,-81.922556,,,0,
2816,,CENTER RIDGE RD & FOREST PKWY,,41.45114,-81.917005,,,0,
2817,,CENTER RIDGE RD & FOREST PKWY,,41.451249,-81.916998,,,0,
2818,,CENTER RIDGE RD & FORESTVIEW AV,,41.462678,-81.849617,,,0,
2821,,CENTER RIDGE RD & GLENMORE DR,,41.446662,-81.929125,,,0,
2822,,CENTER RIDGE RD & GLENMORE DR,,41.446811,-81.929045,,,0,
2825,,CENTER RIDGE RD & KING JAMES PKWY,,41.456926,-81.898077,,,0,
2826,,CENTER RIDGE RD & KING JAMES PKWY,,41.457139,-81.897714,,,0,
2827,,CENTER RIDGE RD & LAKEVIEW AV,,41.46456,-81.843035,,,0,
2839,,CENTER RIDGE RD & PEASE DR,,41.460433,-81.857566,,,0,
2840,,CENTER RIDGE RD & PEBBLEBROOK DR,,41.456488,-81.877837,,,0,
2841,,CENTER RIDGE RD & ACADIA TERRACE,,41.456576,-81.877769,,,0,
2845,,CENTER RIDGE RD & RIVER OAKS DR,,41.459668,-81.860649,,,0,
2846,,CENTER RIDGE RD & RIVER OAKS DR,,41.459236,-81.861421,,,0,
2848,,CENTER RIDGE RD & SPENCER RD,,41.458483,-81.8643,,,0,
2852,,CENTER RIDGE RD & W HEDGEWOOD DR,,41.454775,-81.906068,,,0,
2853,,CENTER RIDGE RD & W 210TH ST,,41.461987,-81.851662,,,0,
2855,,CENTER RIDGE RD & WALTER RD,,41.457976,-81.892847,,,0,
2856,,CENTER RIDGE RD & WALTER RD,,41.458104,-81.892415,,,0,
2863,,CENTER RD & CARLYLE RD,,41.406761,-81.53725,,,0,
2866,,CENTER RD & ELLENWOOD AV,,41.399626,-81.537139,,,0,
2867,,CENTER RD & ELM ST,,41.396598,-81.53701,,,0,
2868,,CENTER RD & ELM ST,,41.396646,-81.537121,,,0,
2869,,CENTER RD & ENNIS AV,,41.398076,-81.537028,,,0,
2870,,CENTER RD & ENNIS AV,,41.398089,-81.53714,,,0,
2872,,CENTER RD & LEYTON RD,,41.405138,-81.537228,,,0,
2873,,CENTER RD & GRAND BLVD,,41.408262,-81.537306,,,0,
2874,,CENTER RD & TALBOT DR,,41.401753,-81.537184,,,0,
2875,,CENTER RD & WILLARD AV,,41.404939,-81.537034,,,0,
2916,,CHAGRIN BLVD & AVALON RD,,41.464453,-81.558674,,,0,
2917,,CHAGRIN BLVD & AVALON RD,,41.464625,-81.558766,,,0,
2918,,CHAGRIN BLVD & AVONDALE AV,,41.462297,-81.478537,,,0,
2919,,CHAGRIN BLVD & BELMONT RD,,41.462289,-81.475418,,,0,
2920,,CHAGRIN BLVD & BELMONT RD,,41.462442,-81.474866,,,0,
2922,,CHAGRIN BLVD & CHELTON RD,,41.464415,-81.567526,,,0,
2923,,CHAGRIN BLVD & CHELTON RD,,41.464511,-81.567476,,,0,
2927,,CHAGRIN BLVD & GLENCAIRN RD,,41.464472,-81.551962,,,0,
2928,,CHAGRIN BLVD & GLENCAIRN RD,,41.464603,-81.551586,,,0,
2930,,CHAGRIN BLVD & INGLESIDE RD,,41.464453,-81.555711,,,0,
2931,,CHAGRIN BLVD & INGLESIDE RD,,41.464582,-81.555345,,,0,
2935,,CHAGRIN BLVD & LEE RD,,41.464355,-81.565392,,,0,
2936,,CHAGRIN BLVD & LEE RD,,41.464595,-81.564608,,,0,
2937,,CHAGRIN BLVD & LUDGATE RD,,41.464491,-81.569594,,,0,
2938,,CHAGRIN BLVD & LYNNFIELD RD,,41.464482,-81.547636,,,0,
2939,,CHAGRIN BLVD & LYNNFIELD RD,,41.464614,-81.546635,,,0,
2942,,CHAGRIN BLVD & MAPLE CREST RD,,41.462292,-81.483641,,,0,
2943,,CHAGRIN BLVD & MARYLAND AV,,41.462441,-81.479979,,,0,
2944,,CHAGRIN BLVD & MENLO RD,,41.464383,-81.571351,,,0,
2946,,CHAGRIN BLVD & NORWOOD RD,,41.464486,-81.543831,,,0,
2947,,CHAGRIN BLVD & NORWOOD RD,,41.464606,-81.544109,,,0,
2949,,CHAGRIN BLVD & RICHMOND RD,,41.464346,-81.498155,,,0,
2954,,CHAGRIN BLVD & S GREEN RD,,41.464553,-81.516613,,,0,
2958,,CHAGRIN BLVD & WARRENSVILLE CTR RD,,41.464674,-81.535819,,,0,
2960,,CHARDON RD & BRUSH RD,,41.578913,-81.493847,,,0,
2961,,27100 CHARDON RD (UNIVERSITY HOSPITAL),,41.58133,-81.489682,,,0,
2963,,CHARDON RD & E 200TH ST,,41.575723,-81.539044,,,0,
2964,,CHARDON RD & EUCLID AV,,41.569945,-81.533952,,,0,
2965,,CHARDON RD & NORTH ST,,41.570657,-81.534421,,,0,
2966,,CHARDON RD & RICHMOND RD,,41.576394,-81.495373,,,0,
2970,,CHESTER AV & E 12TH ST,,41.502194,-81.684598,,,0,
2973,,CHESTER AV & E 17TH ST,,41.503145,-81.680573,,,0,
2976,,CHESTER AV & E 18TH ST,,41.503301,-81.678975,,,0,
2983,,CHESTNUT LN & CHARDON RD,,41.582174,-81.489259,,,0,
2984,,CHESTNUT LN & RUTH ELLEN DR,,41.582955,-81.489914,,,0,
2985,,CHESTNUT LN & RUTH ELLEN DR,,41.583164,-81.490246,,,0,
2986,,CHEVROLET BLVD & DEBORAH DR,,41.412607,-81.76877,,,0,
2987,,CHEVROLET BLVD & DEBORAH DR,,41.412622,-81.768884,,,0,
3004,,CLAGUE RD & LAKE RD,,41.482308,-81.881782,,,0,
3005,,CLAGUE RD & LAKE RD,,41.482084,-81.881928,,,0,
3009,,CLAGUE RD & WOLF RD PARK-N-RIDE,,41.480032,-81.881918,,,0,
3014,,CLAGUE RD & WOLF RD,,41.479604,-81.882172,,,0,
3015,,CLARK AV & FULTON RD,,41.469738,-81.707676,,,0,
3016,,CLARK AV & FULTON RD,,41.469866,-81.707191,,,0,
3017,,CLARK AV & W 16TH ST,,41.469946,-81.69396,,,0,
3018,,CLARK AV & W 16TH ST,,41.470041,-81.693721,,,0,
3019,,CLARK AV & W 30TH ST,,41.469833,-81.701633,,,0,
3020,,CLARK AV & W 31ST ST,,41.469827,-81.703323,,,0,
3021,,CLARK AV & W 32ND ST,,41.469915,-81.704014,,,0,
3022,,CLARK AV & W 33RD ST,,41.469802,-81.704959,,,0,
3023,,CLARK AV & W 38TH ST,,41.469724,-81.709952,,,0,
3024,,CLARK AV & W 38TH ST,,41.469816,-81.710355,,,0,
3025,,CLARK AV & W 41ST ST,,41.46967,-81.713499,,,0,
3026,,CLARK AV & W 41ST ST,,41.469763,-81.713024,,,0,
3027,,CLARK AV & W 44TH ST,,41.469619,-81.717031,,,0,
3028,,CLARK AV & W 44TH ST,,41.469728,-81.716374,,,0,
3029,,CLARK AV & W 47TH ST,,41.469692,-81.719013,,,0,
3030,,CLARK AV & W 48TH ST,,41.469619,-81.720215,,,0,
3031,,CLARK AV & W 52ND ST,,41.469593,-81.722949,,,0,
3032,,CLARK AV & W 53RD ST,,41.469698,-81.722521,,,0,
3033,,CLARK AV & W 56TH ST,,41.469614,-81.724779,,,0,
3034,,CLARK AV & W 56TH ST,,41.469712,-81.724314,,,0,
3035,,CLARK AV & W 61ST ST,,41.469585,-81.727862,,,0,
3036,,CLARK AV & W 61ST ST,,41.469704,-81.72737,,,0,
3037,,CLARK AV & W 65TH ST,,41.469567,-81.729761,,,0,
3038,,CLARK AV & W 70TH ST,,41.469537,-81.73298,,,0,
3039,,CLARK AV & W 70TH ST,,41.469633,-81.733234,,,0,
3040,,CLARK AV & W 65TH ST,,41.469711,-81.729612,,,0,
3041,,GRANADA BLVD & CLARKWOOD PKWY,,41.439494,-81.520644,,,0,
3042,,CLARKWOOD PKWY & NORTHFIELD RD,,41.442423,-81.527304,,,0,
3048,,CLIFTON BLVD & BALTIC RD,,41.483936,-81.749647,,,0,
3050,,CLIFTON BLVD & BELLE AV,,41.491657,-81.796764,,,0,
3051,,CLIFTON BLVD & BELLE AV,,41.491867,-81.796737,,,0,
3052,,CLIFTON BLVD & BUNTS RD,,41.49121,-81.789514,,,0,
3054,,CLIFTON BLVD & COOK AV,,41.49194,-81.800719,,,0,
3055,,CLIFTON BLVD & COVE AV,,41.488873,-81.774981,,,0,
3056,,CLIFTON BLVD & CRANFORD AV,,41.491844,-81.80991,,,0,
3061,,CLIFTON BLVD & FRY AV,,41.488289,-81.772402,,,0,
3064,,CLIFTON BLVD & GRANGER AV,,41.491296,-81.816463,,,0,
3067,,CLIFTON BLVD & LAKE AV,,41.484553,-81.746895,,,0,
3068,,CLIFTON BLVD & LAKE AV,,41.484918,-81.746403,,,0,
3072,,CLIFTON BLVD & NICHOLSON AV,,41.490767,-81.783056,,,0,
3074,,CLIFTON BLVD & NICHOLSON AV,,41.490966,-81.783131,,,0,
3076,,CLIFTON BLVD & SUMMIT AV,,41.491799,-81.806652,,,0,
3077,,CLIFTON BLVD & SUMMIT AV,,41.491992,-81.807392,,,0,
3079,,CLIFTON BLVD & W 104TH ST,,41.485356,-81.756178,,,0,
3080,,CLIFTON BLVD & W 104TH ST,,41.485183,-81.756544,,,0,
3083,,CLIFTON BLVD & W 110TH ST,,41.48615,-81.760746,,,0,
3084,,CLIFTON BLVD & W 110TH ST,,41.486038,-81.761258,,,0,
3089,,CLIFTON BLVD & W 115TH ST,,41.486867,-81.765773,,,0,
3090,,CLIFTON BLVD & W 115TH ST,,41.487102,-81.765964,,,0,
3091,,CLIFTON BLVD & W 117TH ST,,41.487327,-81.768227,,,0,
3092,,CLIFTON BLVD & W 117TH ST,,41.487449,-81.768046,,,0,
3095,,CLIFTON BLVD & WARREN RD,,41.491692,-81.798894,,,0,
3097,,CLIFTON BLVD & WEBB RD,,41.491242,-81.820564,,,0,
3098,,CLIFTON BLVD & WEST BLVD,,41.484512,-81.752815,,,0,
3100,,CLIFTON BLVD & WESTLAKE AV,,41.491606,-81.810497,,,0,
3104,,COIT AV & EUCLID AV,,41.540146,-81.572685,,,0,
3105,,COIT AV & EUCLID AV,,41.539832,-81.572313,,,0,
3169,,COLUMBUS ST & ARCHER RD,,41.400652,-81.521249,,,0,
3170,,COLUMBUS ST & ARCHER RD,,41.400508,-81.521225,,,0,
3171,,COLUMBUS ST & BARTLETT RD,,41.401461,-81.517127,,,0,
3173,,COLUMBUS RD & BEAR CREEK DR,,41.40217,-81.510458,,,0,
3176,,COLUMBUS RD & DARLINGTON RD,,41.399231,-81.523898,,,0,
3177,,COLUMBUS ST & HIGH ST,,41.39966,-81.52317,,,0,
3178,,COLUMBUS RD & KIMBERLY DR,,41.402168,-81.500869,,,0,
3179,,COLUMBUS RD & KIMBERLY DR,,41.402092,-81.501402,,,0,
3185,,COLUMBUS RD & SWEET BIRCH DR,,41.402196,-81.504599,,,0,
3186,,COLUMBUS RD & SWEET BIRCH DR,,41.402096,-81.504558,,,0,
3187,,COLUMBUS RD & VICKIE LN,,41.402195,-81.50991,,,0,
3193,,COMMUNITY COLLEGE AV & E 22ND ST,,41.495312,-81.673733,,,0,
3194,,COMMUNITY COLLEGE AV & E 22ND ST,,41.495586,-81.674105,,,0,
3195,,COMMUNITY COLLEGE AV & E 24TH ST,,41.495082,-81.672122,,,0,
3196,,COMMUNITY COLLEGE AV & E 24TH ST,,41.495113,-81.6714,,,0,
3197,,COMMUNITY COLLEGE AV & E 30TH ST,,41.494428,-81.668227,,,0,
3199,,COMMUNITY COLLEGE AV & E 30TH ST,,41.494501,-81.667679,,,0,
3201,,COMMUNITY COLLEGE AV & E 35TH ST,,41.493698,-81.663645,,,0,
3202,,COMMUNITY COLLEGE AV & E 35TH ST,,41.493887,-81.663783,,,0,
3205,,COMMUNITY COLLEGE AV & E 38TH ST,,41.493277,-81.660478,,,0,
3206,,COMMUNITY COLLEGE AV & E 38TH ST,,41.49314,-81.660203,,,0,
3207,,COMMUNITY COLLEGE AV & E 40TH ST,,41.492796,-81.658154,,,0,
3213,,CORLETT AV & MARTIN LUTHER KING DR,,41.455569,-81.602304,,,0,
3214,,CORLETT AV & MARTIN LUTHER KING DR,,41.455697,-81.60234,,,0,
3215,,CORLETT AV & E 120TH ST,,41.455594,-81.59943,,,0,
3216,,CORLETT AV & E 120TH ST,,41.45571,-81.599106,,,0,
3217,,CORLETT AV & E 124TH ST,,41.455622,-81.596557,,,0,
3218,,CORLETT AV & E 124TH ST,,41.455721,-81.596587,,,0,
3219,,CORLETT AV & E 127TH ST,,41.455633,-81.594486,,,0,
3220,,CORLETT AV & E 127TH ST,,41.45573,-81.594134,,,0,
3230,,COVE AV & EDGEWATER DR,,41.491619,-81.774852,,,0,
3233,,COVENTRY RD & HAMPSHIRE RD,,41.510731,-81.580067,,,0,
3241,,CROCKER RD & CLEMENS RD,,41.470783,-81.950744,,,0,
3250,,29000 HEALTH CAMPUS DR (WELCOMING CENTER),,41.437061,-81.944262,,,0,
3251,,29101 HEALTH CAMPUS DR (MEDICAL ARTS CTR),,41.437095,-81.942022,,,0,
3257,,COUNTRY LN & CAMBRIDGE LN,,41.431537,-81.491382,,,0,
3259,,COUNTRY LN & EMERY RD,,41.43482,-81.490754,,,0,
3264,,DAY DR & LAURENT DR,,41.379047,-81.729154,,,0,
3265,,DAY DR & LYNETT DR,,41.380633,-81.732129,,,0,
3266,,DAY DR & LYNETT DR,,41.380504,-81.732484,,,0,
3268,,DAY DR & RIDGE RD,,41.380484,-81.735251,,,0,
3269,,DAY DR & RIDGE RD,,41.380621,-81.73427,,,0,
3289,,7000 DENISON AV,,41.461707,-81.736176,,,0,
3341,,DETROIT AV & ALMEDA AV,,41.484483,-81.777748,,,0,
3344,,DETROIT AV & ARTHUR AV,,41.485133,-81.805318,,,0,
3345,,DETROIT RD & BASSETT RD,,41.464492,-81.944195,,,0,
3346,,DETROIT RD & BASSETT RD,,41.464639,-81.943679,,,0,
3347,,DETROIT RD & BATES RD,,41.471628,-81.866008,,,0,
3348,,DETROIT RD & BATES RD,,41.471706,-81.865927,,,0,
3349,,DETROIT AV & BELLE AV,,41.485239,-81.796643,,,0,
3350,,DETROIT AV & BELLE AV,,41.485386,-81.797432,,,0,
3351,,DETROIT AV & BLOSSOM PARK AV,,41.485407,-81.793043,,,0,
3355,,DETROIT AV & BUNTS RD,,41.485447,-81.789676,,,0,
3356,,DETROIT AV & BUNTS RD,,41.485539,-81.789154,,,0,
3357,,27850 DETROIT RD,,41.465893,-81.931461,,,0,
3358,,DETROIT RD & CANTERBURY RD,,41.46863,-81.912009,,,0,
3359,,DETROIT RD & CANTERBURY RD,,41.468892,-81.911283,,,0,
3362,,DETROIT RD & CLAGUE RD,,41.471434,-81.882633,,,0,
3363,,DETROIT RD & CLAGUE RD,,41.471497,-81.882147,,,0,
3364,,DETROIT AV & CLARENCE AV,,41.484755,-81.781824,,,0,
3366,,25100 DETROIT RD (PAT O'BRIEN CHEVROLET),,41.470534,-81.897928,,,0,
3369,,DETROIT AV & COUTANT AV,,41.483723,-81.77054,,,0,
3371,,DETROIT AV & CRANFORD AV,,41.485245,-81.809703,,,0,
3375,,DETROIT RD & DOVER CENTER RD,,41.467141,-81.921851,,,0,
3376,,DETROIT RD & DOVER CENTER RD,,41.467509,-81.92093,,,0,
3384,,DETROIT RD & FRESNO DR,,41.471587,-81.878301,,,0,
3385,,DETROIT AV & FRY AV,,41.48397,-81.772484,,,0,
3388,,DETROIT AV & GRACE AV,,41.484685,-81.779925,,,0,
3391,,DETROIT RD & HUNTERS CHASE DR,,41.465037,-81.940693,,,0,
3395,,DETROIT AV & LAKE AV,,41.482546,-81.736246,,,0,
3396,,DETROIT AV & LAKEVIEW AV,,41.478531,-81.843995,,,0,
3397,,DETROIT AV & LAKEVIEW AV,,41.478912,-81.843435,,,0,
3399,,DETROIT AV & EDWARDS AV,,41.485298,-81.814763,,,0,
3402,,DETROIT AV & LINCOLN AV,,41.485324,-81.79474,,,0,
3403,,DETROIT RD & LINDA ST,,41.479557,-81.841007,,,0,
3404,,DETROIT RD & LINDA ST,,41.479783,-81.84067,,,0,
3407,,DETROIT RD & MARVIEW DR,,41.468413,-81.914764,,,0,
3409,,DETROIT RD & MEDFIELD DR,,41.471682,-81.863069,,,0,
3410,,DETROIT RD & MEDFIELD DR,,41.471748,-81.862977,,,0,
3412,,DETROIT AV & NICHOLSON AV,,41.485022,-81.783608,,,0,
3413,,DETROIT RD & NORTHVIEW RD,,41.476929,-81.847116,,,0,
3414,,DETROIT AV & OLIVEWOOD AV,,41.48551,-81.793502,,,0,
3415,,DETROIT AV & ORCHARD GROVE AV,,41.485109,-81.808992,,,0,
3416,,DETROIT RD & ORCHARD PARK DR,,41.47143,-81.870504,,,0,
3417,,DETROIT RD & ORCHARD PARK DR,,41.471464,-81.870261,,,0,
3418,,DETROIT RD & PARSONS ST,,41.481001,-81.837545,,,0,
3420,,DETROIT RD & PROSPECT AV,,41.480914,-81.837456,,,0,
3422,,DETROIT RD & QUEEN ANNE'S GATE,,41.470981,-81.890033,,,0,
3425,,DETROIT AV & RIVERSIDE DR,,41.482415,-81.826664,,,0,
3426,,DETROIT AV & ROYCROFT AV,,41.485129,-81.817757,,,0,
3432,,DETROIT AV & W 110TH ST,,41.482138,-81.763155,,,0,
3433,,DETROIT AV & W 110TH ST,,41.482066,-81.762496,,,0,
3434,,DETROIT AV & W 114TH ST,,41.482852,-81.765949,,,0,
3435,,DETROIT AV & W 114TH ST,,41.483106,-81.766525,,,0,
3436,,DETROIT AV & W 117TH ST,,41.483467,-81.768349,,,0,
3437,,DETROIT AV & W 117TH ST,,41.483523,-81.768246,,,0,
3438,,DETROIT AV & W 25TH ST,,41.491234,-81.707609,,,0,
3439,,DETROIT AV & W 25TH ST,,41.491245,-81.707891,,,0,
3440,,DETROIT AV & W 28TH ST,,41.490419,-81.709446,,,0,
3444,,DETROIT AV & W 32ND ST,,41.488871,-81.713142,,,0,
3445,,DETROIT AV & W 32ND ST,,41.488897,-81.713396,,,0,
3447,,DETROIT AV & W 38TH ST,,41.488287,-81.714852,,,0,
3448,,DETROIT AV & W 45TH ST,,41.487274,-81.718122,,,0,
3449,,DETROIT AV & W 45TH ST,,41.487143,-81.718095,,,0,
3452,,DETROIT AV & W 54TH ST,,41.485884,-81.72363,,,0,
3453,,DETROIT AV & W 58TH ST,,41.48509,-81.726104,,,0,
3454,,DETROIT AV & W 58TH ST,,41.485229,-81.725884,,,0,
3455,,DETROIT AV & W 61ST ST,,41.484508,-81.728272,,,0,
3456,,DETROIT AV & W 61ST ST,,41.484668,-81.728207,,,0,
3457,,DETROIT AV & W 65TH ST,,41.48393,-81.73059,,,0,
3458,,DETROIT AV & W 65TH ST,,41.484152,-81.730036,,,0,
3459,,DETROIT AV & W 70TH ST,,41.48328,-81.732981,,,0,
3460,,DETROIT AV & W 70TH ST,,41.483332,-81.733184,,,0,
3463,,DETROIT AV & W 77TH ST,,41.482067,-81.737551,,,0,
3464,,DETROIT AV & W 80TH ST,,41.481401,-81.740254,,,0,
3465,,DETROIT AV & W 80TH ST,,41.481619,-81.739881,,,0,
3466,,DETROIT AV & W 84TH ST,,41.480877,-81.742274,,,0,
3467,,DETROIT AV & W 85TH ST,,41.480769,-81.743011,,,0,
3469,,DETROIT AV & W 91ST ST,,41.480298,-81.746016,,,0,
3470,,DETROIT AV & W 91ST ST,,41.480377,-81.746046,,,0,
3471,,DETROIT AV & W 95TH ST,,41.480073,-81.748757,,,0,
3472,,DETROIT AV & W CLIFTON BLVD,,41.484276,-81.822548,,,0,
3474,,DETROIT RD & WAGAR RD,,41.485221,-81.812359,,,0,
3476,,DETROIT AV & WARREN RD,,41.485091,-81.799137,,,0,
3477,,DETROIT AV & WARREN RD,,41.485194,-81.79998,,,0,
3479,,DETROIT AV & WEBB RD,,41.484421,-81.820373,,,0,
3480,,DETROIT AV & WEBB RD,,41.484782,-81.820043,,,0,
3481,,WEST BLVD-CUDELL STATION STOP #1,,41.4803,-81.753481,,,0,
3484,,DETROIT AV & WEYMOUTH CIR,,41.465357,-81.938203,,,0,
3486,,DETROIT AV & WINCHESTER AV,,41.484054,-81.774164,,,0,
3490,,DETROIT RD & W 192ND ST,,41.482141,-81.835553,,,0,
3500,,DOVER CENTER RD & NORMANDY RD,,41.483017,-81.920853,,,0,
3501,,DOVER CENTER RD & OSBORN RD,,41.48143,-81.920925,,,0,
3522,,DOVER CENTER RD & W OVIATT RD,,41.479081,-81.921185,,,0,
3525,,DRAKE RD & BEAR CREEK LN,,41.290387,-81.82442,,,0,
3529,,DRAKE RD & BEAR CREEK LN,,41.290478,-81.824037,,,0,
3530,,DRAKE RD & DEER PATH DR,,41.290433,-81.830467,,,0,
3531,,DRAKE RD & CAMBRIDGE OVAL,,41.290341,-81.830558,,,0,
3532,,DRAKE RD & HIGHPOINT CLUB BLVD,,41.290364,-81.828078,,,0,
3533,,DRAKE RD & HIGHPOINT CLUB BLVD,,41.290456,-81.827395,,,0,
3536,,DRAKE RD & MISTY LAKE DR,,41.290504,-81.816434,,,0,
3537,,DRAKE RD & MISTY LAKE DR,,41.290602,-81.816229,,,0,
3538,,DRAKE RD & PEARL RD,,41.290316,-81.834401,,,0,
3539,,PEARL RD & DRAKE RD,,41.290804,-81.835042,,,0,
3542,,DRAKE RD & QUAIL HOLLOW DR,,41.290444,-81.819477,,,0,
3543,,DRAKE RD & QUAIL HOLLOW DR,,41.290541,-81.819142,,,0,
3544,,DUNDEE DR & ABLEWHITE AV,,41.547809,-81.605776,,,0,
3545,,DUNDEE DR & CORBUS RD,,41.546454,-81.604514,,,0,
3577,,E 105TH ST & ASHBURY AV,,41.518424,-81.615514,,,0,
3579,,E 105TH ST & CARNEGIE AV,,41.501702,-81.615149,,,0,
3580,,E 105TH ST & CARNEGIE AV,,41.500782,-81.615313,,,0,
3581,,E 105TH ST & CEDAR AV,,41.499508,-81.615192,,,0,
3582,,E 105TH ST & CEDAR AV,,41.499013,-81.615308,,,0,
3583,,E 105TH ST & CHESTER AV,,41.505364,-81.615257,,,0,
3584,,E 105TH ST & CHESTER AV,,41.505615,-81.615364,,,0,
3589,,E 105TH ST & MAGNOLIA DR,,41.514557,-81.615493,,,0,
3590,,E 105TH ST & ELGIN AV,,41.537101,-81.615589,,,0,
3591,,E 105TH ST & ELK AV,,41.543328,-81.615459,,,0,
3595,,E 105TH ST & ENGLEWOOD AV,,41.535086,-81.615596,,,0,
3596,,E 105TH ST & EUCLID AV,,41.503921,-81.615213,,,0,
3598,,E 105TH ST & FRANK AV,,41.497543,-81.615235,,,0,
3599,,E 105TH ST & ELK AV,,41.543199,-81.615601,,,0,
3601,,E 105TH ST & GREENLAWN AV,,41.530944,-81.615628,,,0,
3603,,E 105TH ST & HAMPDEN AV,,41.524321,-81.615627,,,0,
3605,,E 105TH ST & MARTIN LUTHER KING JR DR,,41.511406,-81.615282,,,0,
3606,,E 105TH ST & MARTIN LUTHER KING JR DR,,41.511776,-81.615455,,,0,
3607,,E 105TH ST & HUDSON AV,,41.496048,-81.615181,,,0,
3608,,E 105TH ST & HUDSON AV,,41.495908,-81.615289,,,0,
3610,,E 105TH ST & MARLOWE AV,,41.540486,-81.615501,,,0,
3615,,E 105TH ST & ORVILLE AV,,41.519933,-81.615534,,,0,
3617,,E 105TH ST & PARKGATE AV,,41.528892,-81.615599,,,0,
3621,,QUINCY AV & E 105TH ST,,41.493502,-81.614954,,,0,place_x105r
3623,,E 105TH ST & OSTEND AV,,41.527249,-81.615624,,,0,
3624,,E 105TH ST & SOUTH BLVD,,41.525784,-81.615575,,,0,
3625,,E 105TH ST & ST. CLAIR AV,,41.538986,-81.615597,,,0,
3628,,E 105TH ST & SUPERIOR AV,,41.521916,-81.615529,,,0,
3631,,E 105TH ST & WADE PARK AV,,41.516159,-81.615494,,,0,
3632,,E 105TH ST & WAIN CT,,41.497696,-81.615291,,,0,
3634,,E 105TH ST & YALE AV,,41.533507,-81.615612,,,0,
3639,,E 110TH ST & GLENVIEW AV,,41.544834,-81.608828,,,0,
3640,,E 110TH ST & GLENVIEW AV,,41.545176,-81.608947,,,0,
3642,,MARTIN LUTHER KING DR & ANGELUS AV,,41.453691,-81.602613,,,0,
3643,,MARTIN LUTHER KING DR & AVON AV,,41.451297,-81.602587,,,0,
3644,,MARTIN LUTHER KING DR & AVON AV,,41.45117,-81.602888,,,0,
3645,,E 116TH ST & BENHAM AV,,41.461697,-81.602951,,,0,
3646,,E 116TH ST & BENHAM AV,,41.461538,-81.602811,,,0,
3647,,E 116TH ST & BUCKEYE RD,,41.480845,-81.602875,,,0,
3650,,E 116TH ST & BUCKINGHAM AV,,41.484956,-81.602828,,,0,
3651,,E 116TH ST & CLAREBIRD AV,,41.458651,-81.602778,,,0,
3652,,E 116TH ST & CONTINENTAL AV,,41.476415,-81.60283,,,0,
3653,,E 116TH ST & CONTINENTAL AV,,41.47628,-81.602953,,,0,
3654,,MARTIN LUTHER KING DR & CORLETT AV,,41.455479,-81.602627,,,0,
3655,,MARTIN LUTHER KING DR & CORLETT AV,,41.455385,-81.602911,,,0,
3656,,E 116TH ST & CRAVEN AV,,41.459694,-81.602797,,,0,
3657,,E 116TH ST & CRAVEN AV,,41.459726,-81.602945,,,0,
3658,,E 116TH ST & CROMWELL AV,,41.485898,-81.60283,,,0,
3660,,E 116TH ST & ELY AV,,41.47181,-81.602832,,,0,
3661,,E 116TH ST & ELY AV,,41.471646,-81.602957,,,0,
3663,,E 116TH ST & FOREST AV,,41.477958,-81.602839,,,0,
3664,,E 116TH ST & FOREST AV,,41.478266,-81.602957,,,0,
3665,,MARTIN LUTHER KING DR & HARVARD AV,,41.449263,-81.602787,,,0,
3666,,MARTIN LUTHER KING DR & HARVARD AV,,41.449335,-81.602921,,,0,
3667,,E 116TH ST & HARVEY AV,,41.479587,-81.602861,,,0,
3669,,E 116TH ST & KINSMAN RD,,41.467866,-81.602823,,,0,
3670,,E 116TH ST & KINSMAN RD,,41.468354,-81.602967,,,0,
3671,,MARTIN LUTHER KING DR & LENACRAVE AV,,41.452893,-81.602616,,,0,
3672,,E 116TH ST & MELBA AV,,41.474901,-81.60295,,,0,
3674,,MARTIN LUTHER KING DR & MILES AV,,41.445399,-81.602897,,,0,
3675,,MARTIN LUTHER KING DR & NELSON AV,,41.453395,-81.602897,,,0,
3676,,E 116TH ST & PARKHILL AV,,41.474268,-81.60285,,,0,
3677,,E 116TH ST & SHAKER BLVD,,41.484411,-81.602964,,,0,
3678,,E 116TH ST & SHAKER BLVD,,41.483685,-81.602815,,,0,
3679,,E 116TH ST & SOIKA AV,,41.473496,-81.602842,,,0,
3680,,E 116TH ST & SOIKA AV,,41.47357,-81.602933,,,0,
3681,,E 116TH ST & UNION AV,,41.463524,-81.602807,,,0,
3682,,E 116TH ST & UNION AV,,41.463884,-81.602932,,,0,
3689,,E 12TH ST & ROCKWELL AV,,41.504404,-81.687198,,,0,
3694,,E 123RD ST & CASTLEWOOD AV,,41.528147,-81.601594,,,0,
3696,,E 123RD ST & INGOMAR AV,,41.525122,-81.601092,,,0,
3697,,E 123RD ST & INGOMAR AV,,41.52555,-81.601267,,,0,
3700,,E 123RD ST & OHLMAN AV,,41.532346,-81.601848,,,0,
3701,,E 123RD ST & PHILLIPS AV,,41.526671,-81.601266,,,0,
3702,,E 123RD ST & PHILLIPS AV,,41.526999,-81.601441,,,0,
3703,,E 123RD ST & SAYWELL AV,,41.529732,-81.60188,,,0,
3704,,E 123RD ST & SAYWELL AV,,41.529876,-81.601982,,,0,
3705,,E 123RD ST & TUSCORA AV,,41.531228,-81.601839,,,0,
3707,,E 125TH ST & ARLINGTON AV,,41.534763,-81.597634,,,0,
3708,,E 125TH ST & BRACKLAND AV,,41.537385,-81.597604,,,0,
3709,,E 125TH ST & BRACKLAND AV,,41.537333,-81.597738,,,0,
3710,,E 125TH ST & CARNATION CT,,41.539079,-81.597609,,,0,
3711,,E 125TH ST & CARNATION CT,,41.539426,-81.597747,,,0,
3712,,E 125TH ST & ST. CLAIR AV,,41.540976,-81.597578,,,0,
3713,,E 125TH ST & ST. CLAIR AV,,41.540968,-81.597715,,,0,
3714,,E 125TH ST & WOODSIDE AV,,41.535825,-81.597545,,,0,
3715,,E 125TH ST & WOODSIDE AV,,41.536364,-81.597703,,,0,
3718,,E 130TH ST & ABELL AV,,41.470949,-81.59183,,,0,
3719,,E 130TH ST & ABELL AV,,41.471326,-81.591927,,,0,
3722,,S MORELAND BLVD & FOREST AV,,41.477901,-81.590282,,,0,
3723,,S MORELAND BLVD & FOREST AV,,41.477716,-81.590645,,,0,
3726,,E 130TH ST & IMPERIAL AV,,41.472978,-81.591921,,,0,
3727,,E 130TH ST & KINSMAN RD,,41.465501,-81.591849,,,0,
3728,,E 130TH ST & KINSMAN RD,,41.465588,-81.591965,,,0,
3729,,E 130TH ST & LORENZO AV,,41.472498,-81.591833,,,0,
3730,,E 130TH ST & METCALF AV,,41.467151,-81.591817,,,0,
3731,,E 130TH ST & METCALF AV,,41.467407,-81.591908,,,0,
3733,,E 130TH ST & UNION AV,,41.46405,-81.591966,,,0,
3734,,E 131ST ST & ALVIN AV,,41.435324,-81.592103,,,0,
3737,,E 131ST ST & BARTLETT AV,,41.457202,-81.591108,,,0,
3738,,E 131ST ST & BEACHWOOD AV,,41.442069,-81.591044,,,0,
3739,,E 131ST ST & BEACHWOOD AV,,41.442316,-81.59118,,,0,
3740,,E 131ST ST & BENHAM AV,,41.461758,-81.59124,,,0,
3741,,E 131ST ST & BENWOOD AV,,41.450614,-81.591039,,,0,
3742,,E 131ST ST & BENWOOD AV,,41.450854,-81.591251,,,0,
3746,,E 131ST ST & DOVE AV,,41.45249,-81.59122,,,0,
3747,,E 131ST ST & GAY AV,,41.457143,-81.591247,,,0,
3748,,E 131ST ST & GLENDALE AV,,41.452601,-81.591084,,,0,
3749,,E 131ST ST & HARVARD AV E,,41.449362,-81.591049,,,0,
3750,,E 131ST ST & HARVARD AV E,,41.448792,-81.591216,,,0,
3751,,E 131ST ST & HOLBURN AV,,41.458874,-81.591246,,,0,
3752,,E 131ST ST & LAMBERT AV,,41.461011,-81.591121,,,0,
3753,,E 131ST ST & MAPLEROW AV,,41.438032,-81.591042,,,0,
3754,,E 131ST ST & MAPLEROW AV,,41.438312,-81.591152,,,0,
3755,,E 131ST ST & MARSTON AV,,41.446988,-81.591065,,,0,
3756,,E 131ST ST & MARSTON AV,,41.447443,-81.591197,,,0,
3757,,E 131ST ST & MELGROVE AV,,41.435391,-81.591889,,,0,
3759,,E 131ST ST & MILES AV,,41.445052,-81.591206,,,0,
3760,,E 131ST ST & MILES AV,,41.445121,-81.590937,,,0,
3761,,CAINE AV & E 131ST ST LOOP,,41.444775,-81.590528,,,0,
3762,,E 131ST ST & REXWOOD AV,,41.436245,-81.591069,,,0,
3763,,E 131ST ST & REXWOOD AV,,41.436695,-81.591144,,,0,
3764,,E 131ST ST & S PARKWAY DR,,41.439712,-81.591033,,,0,
3766,,E 131ST ST & SOUTHVIEW AV,,41.454231,-81.591099,,,0,
3789,,E 14TH ST & BRONSON CT,,41.498127,-81.679487,,,0,
3790,,E 14TH ST & CARNEGIE AV,,41.497497,-81.678665,,,0,
3792,,E 14TH ST & ERIE CT,,41.499155,-81.680414,,,0,
3795,,E 140TH ST & ARGUS AV,,41.56092,-81.585165,,,0,
3796,,E 140TH ST & ARGUS AV,,41.561034,-81.585301,,,0,
3797,,E 140TH ST & ASPINWALL AV,,41.557608,-81.585137,,,0,
3798,,E 140TH ST & ASPINWALL AV,,41.558075,-81.585278,,,0,
3799,,E 140TH ST & COIT RD,,41.550718,-81.585156,,,0,
3800,,E 140TH ST & COIT RD,,41.550844,-81.585281,,,0,
3801,,E 140TH ST & DARLEY AV,,41.562725,-81.585163,,,0,
3802,,E 140TH ST & DARLEY AV,,41.563052,-81.585309,,,0,
3803,,E 140TH ST & DEISE AV,,41.5597,-81.58515,,,0,
3804,,E 140TH ST & DEISE AV,,41.559987,-81.585276,,,0,
3807,,E 140TH ST & LAKESHORE BLVD,,41.568665,-81.585323,,,0,
3808,,E 140TH ST & MAXWELL AV,,41.555693,-81.585116,,,0,
3809,,E 140TH ST & MAXWELL AV,,41.555441,-81.585253,,,0,
3810,,E 140TH ST & NELL AV,,41.553674,-81.585099,,,0,
3811,,E 140TH ST & NELL AV,,41.553895,-81.58522,,,0,
3812,,E 140TH ST & OTHELLO AV,,41.565877,-81.585312,,,0,
3813,,E 140TH ST & ST. CLAIR AV,,41.549646,-81.585199,,,0,
3814,,E 140TH ST & ST. CLAIR AV,,41.549447,-81.585353,,,0,
3815,,E 140TH ST & WESTROPP AV,,41.567583,-81.585187,,,0,
3821,,E 143RD ST & MAPLEROW AV,,41.438118,-81.581728,,,0,
3823,,E 143RD ST & CRANWOOD AV,,41.440401,-81.581742,,,0,
3824,,E 143RD ST & CRANWOOD AV,,41.440691,-81.581872,,,0,
3833,,E 152ND ST & ASPINWALL AV,,41.558298,-81.575421,,,0,
3834,,E 152ND ST & ASPINWALL AV,,41.558133,-81.575563,,,0,
3835,,E 152ND ST & COIT AV,,41.542648,-81.57536,,,0,
3836,,E 152ND ST & DARWIN AV,,41.564677,-81.575438,,,0,
3837,,E 152ND ST & ELM AV,,41.542772,-81.575265,,,0,
3840,,E 152ND ST & UTOPIA AV,,41.555619,-81.575521,,,0,
3841,,E 152ND ST & SARANAC RD,,41.560768,-81.575381,,,0,
3843,,E 152ND ST & ST. CLAIR AV,,41.553961,-81.575385,,,0,
3844,,E 152ND ST & ST. CLAIR AV,,41.553528,-81.575494,,,0,
3845,,E 152ND ST & SYLVIA AV,,41.566776,-81.575433,,,0,
3846,,E 152ND ST & SYLVIA AV,,41.566452,-81.575672,,,0,
3847,,E 152ND ST & THAMES AV,,41.565646,-81.575667,,,0,
3848,,E 152ND ST & UTOPIA AV,,41.555382,-81.575377,,,0,
3849,,E 152ND ST & WOODWORTH RD,,41.545421,-81.575404,,,0,
3850,,E 152ND ST & YORICK AV,,41.551418,-81.575364,,,0,
3851,,E 152ND ST & YORICK AV,,41.551363,-81.575468,,,0,
3852,,E 153RD ST & NAPLES AV,,41.433493,-81.574869,,,0,
3853,,E 153RD ST & NAPLES AV,,41.433255,-81.574723,,,0,
3854,,E 153RD ST & OHIO AV,,41.431587,-81.574817,,,0,
3855,,E 153RD ST & SEVILLE RD,,41.434589,-81.574783,,,0,
3856,,SEVILLE RD & E 153RD ST,,41.434938,-81.574682,,,0,
3857,,E 154TH ST & INVERMERE AV,,41.456425,-81.573142,,,0,
3858,,E 154TH ST & INVERMERE AV,,41.456419,-81.573051,,,0,
3859,,E 156TH ST & LAKESHORE BLVD,,41.578333,-81.571969,,,0,
3860,,E 156TH ST & ARCADE AV,,41.573068,-81.571873,,,0,
3861,,E 156TH ST & MACAULEY AV,,41.573548,-81.572027,,,0,
3864,,E 17TH ST & PAYNE AV,,41.504686,-81.680813,,,0,
3866,,E 174TH ST & GROVEWOOD AV,,41.576065,-81.559058,,,0,
3870,,E 174TH ST & NOTTINGHAM RD,,41.581136,-81.559247,,,0,
3871,,E 175TH ST & TARKINGTON AV,,41.431608,-81.556728,,,0,
3872,,E 177TH ST & GLENDALE AV,,41.453376,-81.555394,,,0,
3873,,E 177TH ST & GLENDALE AV,,41.453277,-81.555273,,,0,
3895,,E 185TH ST & MUSKOKA AV,,41.58702,-81.54981,,,0,
3898,,E 185TH ST & GLENFIELD RD,,41.580686,-81.549891,,,0,
3899,,E 185TH ST & KILDEER AV,,41.585019,-81.549791,,,0,
3901,,E 185TH ST & LAKE SHORE BLVD,,41.595514,-81.549974,,,0,
3907,,E 185TH ST & VILLAVIEW RD,,41.579184,-81.549918,,,0,
3908,,E 185TH ST & NEFF RD,,41.58184,-81.549792,,,0,
3911,,E 185TH ST & MONTEREY AV,,41.590786,-81.549831,,,0,
3912,,E 185TH ST & PASNOW AV,,41.593446,-81.549854,,,0,
3916,,E 185TH ST & UNDERWOOD AV,,41.579753,-81.549763,,,0,
3917,,E 185TH ST & PAWNEE AV,,41.588498,-81.549812,,,0,
3922,,E 200TH ST & BALL AV,,41.596809,-81.540225,,,0,
3923,,E 200TH ST & CHEROKEE AV,,41.585761,-81.540085,,,0,
3924,,E 200TH ST & CHEROKEE AV,,41.586186,-81.540172,,,0,
3925,,E 200TH ST & CHICKASAW AV,,41.584578,-81.540085,,,0,
3926,,E 200TH ST & FULLER AV,,41.597791,-81.540222,,,0,
3927,,E 200TH ST & FULLER AV,,41.59807,-81.540296,,,0,
3928,,E 200TH ST & KEWANEE AV,,41.584014,-81.540164,,,0,
3929,,E 200TH ST & KILDEER AV,,41.585323,-81.540275,,,0,
3937,,E 200TH ST & MUSKOKO AV,,41.58749,-81.540177,,,0,
3939,,E 200TH ST & NEWTON AV,,41.596061,-81.540303,,,0,
3940,,E 200TH ST & ORMISTON AV,,41.590006,-81.540238,,,0,
3941,,E 200TH ST & PASNOW AV,,41.592811,-81.54029,,,0,
3942,,E 200TH ST & PAWNEE AV,,41.588818,-81.540221,,,0,
3945,,E 200TH ST & SHAWNEE AV,,41.582775,-81.540038,,,0,
3946,,E 200TH ST & S LAKESHORE BLVD,,41.599839,-81.540329,,,0,
3947,,E 200TH ST & ST. CLAIR AV,,41.578847,-81.539342,,,0,
3948,,E 200TH ST & ST. CLAIR AV,,41.578947,-81.539424,,,0,
3952,,E 21ST ST & EUCLID AV,,41.502543,-81.676064,,,0,
3954,,E 22ND ST & CARNEGIE AV,,41.498982,-81.674028,,,0,
3956,,E 22ND ST & CENTRAL AV,,41.49737,-81.673971,,,0,
3957,,E 22ND ST & CENTRAL AV,,41.497357,-81.67365,,,0,
3958,,E 22ND ST & EUCLID AV,,41.502177,-81.674528,,,0,
3962,,E 228TH ST & EUCLID AV,,41.573879,-81.521886,,,0,
3977,,E 260TH ST & AARON AV,,41.604279,-81.502985,,,0,
3978,,E 260TH ST & AARON AV,,41.603997,-81.502857,,,0,
3980,,E 260TH ST & BRUSH AV,,41.589255,-81.502616,,,0,
3982,,E 260TH ST & ELINORE AV,,41.607494,-81.502896,,,0,
3984,,RICHMOND RD & EUCLID AV,,41.58875,-81.50269,,,0,
3986,,E 260TH ST & FARRINGDON AV,,41.611173,-81.503067,,,0,
3987,,E 260TH ST & FARRINGDON AV,,41.610664,-81.502928,,,0,
3988,,E 260TH ST & FORESTVIEW AV,,41.615639,-81.503122,,,0,
3989,,E 260TH ST & FORESTVIEW AV,,41.615246,-81.502983,,,0,
3990,,E 260TH ST & HELEN AV,,41.606215,-81.503005,,,0,
3991,,E 260TH ST & N LAKELAND BLVD,,41.602397,-81.50282,,,0,
3992,,E 260TH ST & MALLARD AV,,41.613494,-81.502971,,,0,
3998,,E 260TH ST & TUNGSTEN RD,,41.591834,-81.502724,,,0,
4015,,E 276TH ST & BRUSH AV,,41.595083,-81.492618,,,0,
4018,,E 276TH ST & SIDNEY DR,,41.596401,-81.493826,,,0,
4019,,E 276TH ST & TUNGSTEN RD,,41.596867,-81.494105,,,0,
4029,,PUBLIC SQUARE & EAST ROADWAY,,41.499918,-81.692973,,,0,
4032,,E 3RD ST & ROCKWELL AV,,41.500959,-81.692218,,,0,
4041,,2470 E30TH ST (CCC METRO CAMPUS),,41.493339,-81.667651,,,0,
4044,,2465 E 30TH ST (TRI-C METRO ATHLETIC CTR),,41.49345,-81.667309,,,0,
4047,,E 30TH ST & ORANGE AV,,41.49022,-81.668656,,,0,
4048,,E 30TH ST & BROADWAY,,41.488626,-81.669416,,,0,
4049,,BROADWAY & E 30TH ST,,41.488336,-81.669178,,,0,
4055,,E 30TH ST & WOODLAND AV,,41.491985,-81.66814,,,0,
4056,,E 30TH ST & WOODLAND AV,,41.491498,-81.668019,,,0,
4063,,BROADWAY & E 37TH ST,,41.480848,-81.665525,,,0,
4064,,BROADWAY & E 34TH ST,,41.487354,-81.667156,,,0,
4065,,BROADWAY & E 34TH ST,,41.48709,-81.666624,,,0,
4066,,BROADWAY & TRUMBULL AV,,41.482691,-81.665609,,,0,
4068,,BROADWAY & TRUMBULL AV,,41.482885,-81.66577,,,0,
4071,,PAYNE AV & E 40TH ST,,41.510617,-81.658823,,,0,
4072,,E 55TH ST & BELLFORD AV,,41.476406,-81.651326,,,0,
4075,,E 55TH ST & BOWER AV,,41.479644,-81.651386,,,0,
4080,,E 55TH ST & CARNEGIE AV,,41.501774,-81.651673,,,0,
4081,,E 55TH ST & CARNEGIE AV,,41.501847,-81.651875,,,0,
4082,,E 55TH ST & CEDAR AV,,41.500168,-81.651852,,,0,
4083,,E 55TH ST & CENTRAL AV,,41.496044,-81.651615,,,0,
4084,,E 55TH ST & CENTRAL AV,,41.496473,-81.651805,,,0,
4086,,E 55TH ST & COBLEIGH CT,,41.485788,-81.651657,,,0,
4089,,E 55TH ST & CURTISS AV,,41.506654,-81.651703,,,0,
4090,,2765 E 55TH ST,,41.482893,-81.65144,,,0,
4091,,E 55TH ST & ENSIGN AV,,41.484562,-81.651452,,,0,
4092,,E 55TH ST & EUCLID AV,,41.503864,-81.651673,,,0,
4093,,E 55TH ST &  EUCLID AV,,41.50385,-81.651897,,,0,
4094,,E 55TH ST & FRANCIS AV,,41.479022,-81.651557,,,0,
4096,,E 55TH ST & HALTNORTH CT,,41.48856,-81.651509,,,0,
4098,,E 55TH ST & HARLEM AV,,41.515702,-81.651998,,,0,
4100,,E 55TH ST & HOMER AV,,41.520068,-81.652025,,,0,
4101,,E 55TH ST & HOUGH AV,,41.508199,-81.651734,,,0,
4102,,E 55TH ST & JULIA AV,,41.482752,-81.651608,,,0,
4103,,E 55TH ST & KINSMAN RD,,41.486683,-81.651483,,,0,place_xwo55
4104,,E 55TH ST & LEXINGTON AV,,41.510777,-81.651767,,,0,
4105,,E 55TH ST & LEXINGTON AV,,41.51125,-81.651959,,,0,
4108,,E 55TH ST & LUTHER AV,,41.516039,-81.651811,,,0,
4109,,E 55TH ST & ST. CLAIR AV,,41.521727,-81.652045,,,0,
4111,,E 55TH ST & LUFKIN AV,,41.471338,-81.651438,,,0,
4116,,E 55TH ST & PAYNE AV,,41.512827,-81.651975,,,0,
4119,,E 55TH ST & QUINCY AV,,41.493071,-81.651579,,,0,
4120,,E 55TH ST & QUINCY AV,,41.493783,-81.651776,,,0,
4121,,E 55TH ST & SCOVILL AV,,41.491491,-81.65156,,,0,
4122,,E 55TH ST & PROSSER AV,,41.519621,-81.651838,,,0,
4123,,E 55TH ST & SUPERIOR AV,,41.517619,-81.651815,,,0,
4124,,E 55TH ST & SUPERIOR AV,,41.517463,-81.652013,,,0,
4125,,E 55TH ST & SWEENEY AV,,41.475987,-81.651504,,,0,
4126,,E 55TH ST & THACKERAY AV,,41.498275,-81.65164,,,0,
4127,,E 55TH ST & THACKERAY AV,,41.498709,-81.65183,,,0,
4128,,E 55TH ST & TRUSCON AV,,41.473955,-81.651332,,,0,
4130,,E 55TH ST & WHITTIER AV,,41.513137,-81.651788,,,0,
4131,,E 55TH ST & WOODLAND AV,,41.488636,-81.651713,,,0,place_xwo55
4139,,E 6TH ST & LAKESIDE AV,,41.504368,-81.692899,,,0,
4140,,E 6TH ST & ROCKWELL AV,,41.50198,-81.690576,,,0,
4141,,E 65TH ST & MORGAN AV,,41.469144,-81.645054,,,0,
4142,,E 65TH ST & ADOLPHA AV,,41.469379,-81.645164,,,0,
4143,,FLEET AV & E 65TH ST,,41.456048,-81.644786,,,0,
4145,,E 65TH ST & HILLMAN AV,,41.466677,-81.645028,,,0,
4146,,E 65TH ST & HILLMAN AV,,41.46697,-81.64515,,,0,
4165,,E 79TH ST & ABERDEEN AV,,41.521443,-81.633667,,,0,
4167,,E 79TH ST & AVRINA AV,,41.470642,-81.632707,,,0,
4168,,E 79TH ST & AVRINA AV,,41.469123,-81.63282,,,0,
4173,,E 79TH ST & CARNEGIE AV,,41.501161,-81.633458,,,0,
4174,,E 79TH ST & CARNEGIE AV,,41.501868,-81.633554,,,0,
4175,,E 79TH ST & CEDAR AV,,41.499671,-81.633445,,,0,
4176,,E 79TH ST & CEDAR AV,,41.500455,-81.633547,,,0,
4177,,E 79TH ST & CENTRAL AV,,41.496013,-81.633418,,,0,
4178,,E 79TH ST & CENTRAL AV,,41.496587,-81.633519,,,0,
4179,,E 79TH ST & CHESTER AV,,41.505727,-81.633448,,,0,
4180,,E 79TH ST & CHESTER AV,,41.506582,-81.633594,,,0,
4181,,E 79TH ST & CORY AV,,41.51339,-81.633562,,,0,
4182,,E 79TH ST & CORY AV,,41.513705,-81.633621,,,0,
4183,,E 79TH ST & CRUMB AV,,41.527413,-81.633539,,,0,
4184,,E 79TH ST & DECKER AV,,41.517219,-81.633595,,,0,
4185,,E 79TH ST & DECKER AV,,41.5176,-81.633667,,,0,
4187,,E 79TH ST & EUCLID AV,,41.503327,-81.633472,,,0,place_eu79
4188,,E 79TH ST & EUCLID AV,,41.50423,-81.633585,,,0,place_eu79
4194,,E 79TH ST & GRAND AV,,41.484324,-81.633048,,,0,
4195,,E 79TH ST & HOLTON AV,,41.482414,-81.633029,,,0,
4196,,E 79TH ST & HOUGH AV,,41.508903,-81.633514,,,0,
4197,,E 79TH ST & HOUGH AV,,41.509562,-81.633616,,,0,
4204,,E 79TH ST & LEXINGTON AV,,41.511318,-81.633627,,,0,
4205,,E 79TH ST & LINWOOD AV,,41.511638,-81.633534,,,0,
4206,,E 79TH ST & PLATT AV,,41.490234,-81.63336,,,0,
4208,,E 79TH ST & PULASKI AV,,41.524371,-81.633538,,,0,
4209,,E 79TH ST & QUINCY AV,,41.493063,-81.633393,,,0,
4210,,E 79TH ST & QUINCY AV,,41.494027,-81.6335,,,0,
4211,,E 79TH ST & SUPERIOR AV,,41.519535,-81.633495,,,0,
4212,,E 79TH ST & SUPERIOR AV,,41.519694,-81.633677,,,0,
4215,,E 79TH ST & WADE PARK AV,,41.515536,-81.633588,,,0,
4216,,E 79TH ST & WADE PARK AV,,41.516068,-81.633665,,,0,
4217,,E 79TH ST BLUE-GREEN LINE STATION,,41.480457,-81.632812,,,0,
4218,,E 79TH ST RED LINE STATION,,41.485781,-81.632937,,,0,
4219,,E 79TH ST & WOODLAND AV,,41.488387,-81.633448,,,0,
4220,,E 79TH ST RED LINE STATION,,41.485809,-81.63306,,,0,
4233,,E 9TH ST & LAKESIDE AV E,,41.505769,-81.691614,,,0,
4235,,E 9TH ST & LAKESIDE AV E,,41.505599,-81.691627,,,0,
4240,,E 9TH ST & ST. CLAIR AV,,41.504,-81.690226,,,0,
4244,,E 9TH ST & SUPERIOR AV E,,41.50245,-81.688734,,,0,
4248,,E 93RD ST & AETNA RD,,41.45938,-81.621558,,,0,
4249,,E 93RD ST & ANDERSON AV,,41.46143,-81.621341,,,0,
4250,,E 93RD ST & BESSEMER AV,,41.467561,-81.621396,,,0,
4251,,E 93RD ST & BESSEMER AV,,41.4678,-81.621638,,,0,
4253,,E 93RD ST & HARVARD AV,,41.448739,-81.621278,,,0,
4260,,E 93RD ST & FULLER AV,,41.469195,-81.621395,,,0,
4261,,E 93RD ST & GEORGE AV,,41.461292,-81.621541,,,0,
4262,,E 93RD ST & GORMAN AV,,41.444101,-81.621325,,,0,
4263,,E 93RD ST & HARVARD AV,,41.449045,-81.621396,,,0,
4264,,E 93RD ST & HEATH AV,,41.465356,-81.621377,,,0,
4265,,E 93RD ST & KINSMAN RD,,41.47173,-81.621432,,,0,
4266,,E 93RD ST & KINSMAN RD,,41.47235,-81.621713,,,0,
4267,,E 93RD ST & MARSHALL AV,,41.470447,-81.621602,,,0,
4270,,E 93RD ST & MILES AV,,41.445633,-81.621294,,,0,
4271,,MILES AV & E 93RD ST,,41.445214,-81.621817,,,0,
4272,,E 93RD ST & MILES PARK AV,,41.447207,-81.621424,,,0,
4273,,E 93RD ST & AETNA RD,,41.459326,-81.621348,,,0,
4277,,E 93RD ST & SANDUSKY AV,,41.457137,-81.621328,,,0,
4278,,E 93RD ST & NELSON AV,,41.453055,-81.621445,,,0,
4279,,E 93RD ST & UNION AV,,41.463344,-81.621335,,,0,
4280,,E 93RD ST & UNION AV,,41.463873,-81.621556,,,0,
4281,,E 93RD ST & WAY AV,,41.455703,-81.621309,,,0,
4282,,E 93RD ST & WAY AV,,41.455903,-81.621468,,,0,
4283,,TRANSPORTATION  BLVD & GRANGER RD,,41.416568,-81.616188,,,0,
4284,,TRANSPORTATION  BLVD & ODOT,,41.414633,-81.615872,,,0,
4285,,TRANSPORTATION  BLVD & ODOT,,41.414994,-81.616065,,,0,
4310,,EDDY RD & TAFT AV,,41.548098,-81.601285,,,0,
4318,,E 260TH ST & ELINORE AV,,41.607786,-81.503024,,,0,
4322,,ELLACOTT PKWY & NORTHFIELD RD,,41.441945,-81.527962,,,0,
4323,,ELLACOTT PKY & WARRENSVILLE CTR RD,,41.441503,-81.535834,,,0,
4324,,ELLACOTT PKWY & WARRENSVILLE CTR RD,,41.441587,-81.535746,,,0,
4326,,EMERY RD & COUNTRY LN,,41.435051,-81.491031,,,0,
4327,,EMERY RD & DERBYSHIRE DR,,41.435071,-81.520633,,,0,
4328,,EMERY RD & GREEN RD,,41.435024,-81.517288,,,0,
4329,,EMERY RD & GREEN RD,,41.435209,-81.515911,,,0,
4330,,EMERY RD & MERRYGOLD BLVD,,41.435071,-81.507631,,,0,
4331,,EMERY RD & RICHMOND RD,,41.435045,-81.498338,,,0,
4332,,EMERY RD & RICHMOND RD,,41.435195,-81.498605,,,0,
4334,,EMERY RD & WALFORD RD,,41.435068,-81.509766,,,0,
4341,,EUCLID AV & E 276TH ST,,41.593725,-81.49249,,,0,
4344,,EUCLID HTS BLVD & CEDAR RD,,41.50138,-81.597591,,,0,
4345,,EUCLID HTS BLVD & LENNOX RD,,41.50292,-81.594412,,,0,
4346,,EUCLID HTS BLVD & MORNINGTON LN,,41.507471,-81.583253,,,0,
4347,,EUCLID HTS BLVD & OVERLOOK RD,,41.506568,-81.587136,,,0,
4348,,S SEVERANCE DR & S TAYLOR RD,,41.513709,-81.55553,,,0,
4349,,EUCLID HTS BLVD & BERKSHIRE LN,,41.504703,-81.590643,,,0,
4350,,EUCLID HTS BLVD & CEDAR RD,,41.50172,-81.5976,,,0,
4351,,EUCLID HTS BLVD & DERBYSHIRE RD,,41.50366,-81.593366,,,0,
4353,,EUCLID HTS BLVD & LANCASHIRE RD,,41.507756,-81.582841,,,0,
4354,,2555 EUCLID HEIGHTS BLVD,,41.505954,-81.588935,,,0,
4357,,ADELBERT RD & EUCLID AV,,41.505749,-81.60885,,,0,
4360,,EUCLID AV & ARABELLA RD,,41.55071,-81.559377,,,0,
4364,,EUCLID AV & BABBITT RD,,41.585621,-81.50517,,,0,
4365,,EUCLID AV & BABBITT RD,,41.585617,-81.505487,,,0,
4369,,EUCLID AV & BEVERLY HILLS DR,,41.579811,-81.511851,,,0,
4370,,EUCLID AV & BEVERLY HILLS DR,,41.580219,-81.511602,,,0,
4372,,EUCLID AV & BURGESS RD,,41.554383,-81.553645,,,0,
4373,,EUCLID AV & BURGESS RD,,41.554607,-81.553565,,,0,
4374,,EUCLID AV & BURNETTE AV,,41.541071,-81.570632,,,0,
4377,,EUCLID AV & CATALPA RD,,41.557484,-81.549551,,,0,
4378,,EUCLID AV & CHAPMAN AV,,41.534371,-81.577661,,,0,
4380,,EUCLID AV & CHARDON RD,,41.569628,-81.533229,,,0,
4381,,EUCLID AV & CHARDON RD,,41.5695,-81.534116,,,0,
4385,,EUCLID AV & CLARKSTONE RD,,41.549112,-81.561725,,,0,
4390,,EUCLID AV & COLLAMER AV,,41.541645,-81.570367,,,0,
4395,,EUCLID AV & DILLE RD,,41.567014,-81.537512,,,0,
4397,,EUCLID AV & DOAN AV,,41.530965,-81.581512,,,0,
4398,,EUCLID AV & E 100TH ST,,41.503452,-81.618467,,,0,
4401,,EUCLID AV & E 105TH ST,,41.503531,-81.61554,,,0,
4402,,EUCLID AV & E 105TH ST,,41.503789,-81.614999,,,0,
4422,,EUCLID AV & E 191ST ST,,41.559263,-81.546857,,,0,
4424,,EUCLID AV & E 191ST ST,,41.559403,-81.546868,,,0,
4425,,EUCLID AV & E 193RD ST,,41.560615,-81.545008,,,0,
4426,,EUCLID AV & E 193RD ST,,41.560713,-81.545185,,,0,
4427,,EUCLID AV & E 196TH ST,,41.561743,-81.543545,,,0,
4428,,EUCLID AV & E 196TH ST,,41.562287,-81.543113,,,0,
4437,,EUCLID AV & E 219TH ST,,41.571603,-81.527674,,,0,
4438,,EUCLID AV & E 219TH ST,,41.571764,-81.527949,,,0,
4442,,EUCLID AV & E 222ND ST,,41.572429,-81.526164,,,0,place_e222
4445,,EUCLID AV & E 243RD ST,,41.578711,-81.513624,,,0,
4446,,EUCLID AV & E 243RD ST,,41.57906,-81.513393,,,0,
4447,,EUCLID AV & E 248TH ST,,41.582158,-81.509351,,,0,
4448,,EUCLID AV & E 248TH ST,,41.582394,-81.509419,,,0,
4451,,EUCLID AV & KNUTH AV,,41.587219,-81.503169,,,0,
4498,,EUCLID AV & E 93RD ST,,41.503633,-81.62075,,,0,
4505,,EUCLID AV & GRAND BLVD,,41.565304,-81.539395,,,0,
4506,,EUCLID AV & GREEN RD,,41.557223,-81.549629,,,0,
4507,,EUCLID AV & GREEN RD,,41.556708,-81.550752,,,0,
4508,,EUCLID AV & HIGHLAND RD,,41.567108,-81.537178,,,0,
4512,,EUCLID AV & IVANHOE RD,,41.545924,-81.566167,,,0,
4522,,EUCLID AV & LEE BLVD,,41.532685,-81.579463,,,0,
4526,,EUCLID AV & LONDON RD,,41.552162,-81.557006,,,0,
4527,,EUCLID AV & LONDON RD,,41.552046,-81.55741,,,0,
4532,,EUCLID AV & NOBLE RD,,41.543435,-81.568239,,,0,
4533,,EUCLID AV & NOBLE RD,,41.543584,-81.568426,,,0,
4535,,EUCLID AV & NORTHFIELD RD,,41.534315,-81.577877,,,0,
4552,,EUCLID AV & SHAW AV,,41.537532,-81.574226,,,0,
4553,,EUCLID AV & SHAW AV,,41.537615,-81.574432,,,0,
4556,,EUCLID AV & STANWOOD RD,,41.535822,-81.576053,,,0,
4558,,EUCLID AV & STRATHMORE AV,,41.535886,-81.576279,,,0,
4561,,EUCLID AV & N TAYLOR RD,,41.538844,-81.572876,,,0,
4562,,EUCLID AV & N TAYLOR RD,,41.539179,-81.572799,,,0,
4565,,EUCLID AV & TREMAINE DR,,41.592596,-81.494038,,,0,
4568,,EUCLID AV & VAN BUREN RD,,41.530855,-81.58142,,,0,
4571,,EUCLID AV & VICTORIA RD,,41.547982,-81.563373,,,0,
4575,,EUCLID AV & WILLOWHURST RD,,41.550394,-81.559577,,,0,
4579,,EUCLID AV & WYMORE AV,,41.532488,-81.57985,,,0,
4582,,FAIRFIELD AV & W 11TH ST,,41.482298,-81.689219,,,0,
4583,,FAIRFIELD AV & W 10TH ST,,41.482228,-81.687784,,,0,
4584,,FAIRHILL RD & E 124TH ST,,41.493065,-81.596013,,,0,
4585,,FAIRHILL RD & E 124TH ST,,41.492877,-81.596773,,,0,
4586,,FAIRHILL RD & E 127TH ST,,41.492296,-81.59312,,,0,
4587,,FAIRHILL RD & E 127TH ST,,41.492192,-81.593413,,,0,
4588,,FAIRHILL RD & KEMPER RD,,41.491313,-81.590623,,,0,
4589,,STOKES BLVD & PETRARCA RD,,41.498842,-81.610064,,,0,
4591,,FAIRMOUNT BLVD & SHAKERCREST BLVD,,41.486188,-81.503232,,,0,
4614,,FAIRMOUNT BLVD & EDGEWOOD RD,,41.486431,-81.512183,,,0,
4632,,FAIRMOUNT BLVD & ROCKLYN RD,,41.486253,-81.514305,,,0,
4635,,FAIRMOUNT BLVD & SHAKERCREST BLVD,,41.486377,-81.503157,,,0,
4641,,FAIRMOUNT BLVD & SULGRAVE RD,,41.486406,-81.507263,,,0,
4684,,FORESTDALE DR & BROADWAY,,41.428452,-81.589617,,,0,
4685,,FORESTDALE DR & BROADWAY,,41.428568,-81.589697,,,0,
4686,,FORESTDALE DR & E 131ST ST,,41.431655,-81.592286,,,0,
4687,,FORESTDALE DR & CRANWOOD PARK BLVD,,41.431105,-81.591119,,,0,
4688,,FORESTDALE DR & DRESSLER RD,,41.430294,-81.589829,,,0,
4689,,FORESTDALE DR & DRESSLER RD,,41.430171,-81.589814,,,0,
4749,,FULTON PKWY & ARCHMERE AV,,41.425815,-81.723186,,,0,
4750,,FULTON RD & ARCHMERE AV,,41.42633,-81.723315,,,0,
4751,,FULTON RD & ARCHWOOD AV,,41.453726,-81.715574,,,0,
4752,,FULTON RD & BAILEY AV,,41.47706,-81.708561,,,0,
4753,,FULTON RD & BEHRWALD AV,,41.431962,-81.723678,,,0,
4754,,FULTON RD & BEHRWALD AV,,41.432252,-81.723783,,,0,
4755,,FULTON RD & BIDDULPH AV,,41.429512,-81.723598,,,0,place_fubi
4756,,FULTON RD & BIDDULPH AV,,41.430145,-81.723812,,,0,
4759,,FULTON RD & BUSH AV,,41.458026,-81.712949,,,0,
4760,,FULTON RD & BUSH AV,,41.458308,-81.712907,,,0,
4761,,FULTON RD & CARLYLE AV,,41.464451,-81.709062,,,0,
4762,,FULTON RD & CHATHAM AV,,41.479344,-81.709813,,,0,
4763,,FULTON RD & CHATHAM AV,,41.47944,-81.709972,,,0,
4764,,FULTON RD & CLARK AV,,41.469374,-81.707443,,,0,
4765,,FULTON RD & CLARK AV,,41.469897,-81.707531,,,0,
4766,,FULTON RD & DENISON AV,,41.453027,-81.716067,,,0,
4767,,FULTON RD & DENISON AV,,41.452719,-81.716002,,,0,
4768,,FULTON RD & GIFFORD AV,,41.433715,-81.723308,,,0,
4769,,FULTON RD & GIFFORD AV,,41.434013,-81.723451,,,0,
4770,,FULTON RD & HYDE AV,,41.466079,-81.708121,,,0,
4771,,FULTON RD & IRA AV,,41.427786,-81.72327,,,0,
4772,,FULTON RD & IRA AV,,41.428301,-81.723476,,,0,
4774,,FULTON RD & LORAIN AV,,41.480964,-81.710814,,,0,
4775,,FULTON RD & MARVIN AV,,41.459591,-81.71196,,,0,
4776,,FULTON RD & MARVIN AV,,41.460071,-81.711873,,,0,
4777,,FULTON RD & MEMPHIS AV,,41.44022,-81.723255,,,0,place_fume
4778,,FULTON RD & MEMPHIS AV,,41.440166,-81.7235,,,0,place_fume
4779,,FULTON RD & BAILEY AV,,41.477209,-81.708498,,,0,
4780,,FULTON RD & ST. ROCCO CT,,41.467375,-81.707415,,,0,
4782,,FULTON RD & PARK DR,,41.447359,-81.717916,,,0,
4785,,FULTON RD & POE AV,,41.457061,-81.71357,,,0,
4786,,FULTON RD & POE AV,,41.457123,-81.713808,,,0,
4788,,FULTON RD & SACKETT AV,,41.463254,-81.709662,,,0,
4789,,FULTON RD & SACKETT AV,,41.463566,-81.709729,,,0,
4790,,FULTON RD & SEYMOUR AV,,41.472475,-81.707527,,,0,
4791,,FULTON RD & SEYMOUR AV,,41.472631,-81.707652,,,0,
4792,,FULTON RD & TRENT AV,,41.467846,-81.707635,,,0,
4793,,FULTON RD & TROWBRIDGE AV,,41.461518,-81.710741,,,0,
4794,,FULTON RD & TROWBRIDGE AV,,41.461423,-81.710968,,,0,
4795,,FULTON RD & VEGA AV,,41.474631,-81.707602,,,0,
4796,,FULTON RD & VEGA AV,,41.474492,-81.707716,,,0,
4797,,FULTON RD & WALTON AV,,41.470879,-81.707463,,,0,
4798,,FULTON RD & WALTON AV,,41.47108,-81.707607,,,0,
4799,,FULTON RD & WOBURN AV,,41.436599,-81.723353,,,0,
4800,,FULTON RD & WOBURN AV,,41.436504,-81.723487,,,0,
4801,,FULTON RD & NEWARK CT,,41.467149,-81.707534,,,0,
4834,,GROVEWOOD AV & E 161ST ST,,41.575744,-81.568224,,,0,
4835,,GRANADA BLVD & EMERY RD,,41.435483,-81.521199,,,0,
4836,,GRANADA BLVD & EMERY RD,,41.435603,-81.521107,,,0,
4837,,GRANGER RD & E 135TH ST,,41.417102,-81.589674,,,0,
4840,,GRANGER RD & E 100TH ST,,41.417091,-81.614713,,,0,
4842,,GRANGER RD & E 105TH ST,,41.417112,-81.611179,,,0,
4843,,GRANGER RD & E 105TH ST,,41.417021,-81.611536,,,0,
4844,,GRANGER RD & E 115TH ST,,41.417125,-81.60316,,,0,
4845,,GRANGER RD & E 115TH ST,,41.417023,-81.603139,,,0,
4846,,GRANGER RD & E 119TH ST,,41.41714,-81.60083,,,0,
4847,,GRANGER RD & E 119TH ST,,41.417029,-81.601281,,,0,
4850,,GRANGER RD & E 126TH ST,,41.417145,-81.596128,,,0,
4851,,GRANGER RD & E 126TH ST,,41.417029,-81.59585,,,0,
4852,,GRANGER RD & E 132ND ST,,41.417202,-81.591223,,,0,
4853,,GRANGER RD & E 132ND ST,,41.417054,-81.592162,,,0,
4855,,GRANGER RD & TURNEY RD,,41.417122,-81.605937,,,0,
4856,,GRANGER RD & TURNEY RD,,41.417031,-81.606939,,,0,
4865,,GRAYTON RD & BROOKPARK RD,,41.420761,-81.842588,,,0,
4868,,GRAYTON RD & HILLSIDE RD,,41.426935,-81.843361,,,0,
4870,,GRAYTON RD & PARKMOUNT AV,,41.429676,-81.840729,,,0,
4871,,GRAYTON RD & PARKMOUNT AV,,41.430211,-81.840365,,,0,
4872,,GRAYTON RD & PURITAS AV,,41.434123,-81.838267,,,0,
4880,,S GREEN RD & ADRIAN RD,,41.530337,-81.519963,,,0,
4881,,S GREEN RD & ADRIAN RD,,41.530553,-81.5201,,,0,
4882,,S GREEN RD & ANDERSON RD,,41.531552,-81.520048,,,0,
4886,,GREEN RD & ARDENDALE RD,,41.517194,-81.519496,,,0,
4887,,GREEN RD & ARDMORE RD,,41.524694,-81.519646,,,0,
4888,,GREEN RD & E BAINTREE RD,,41.498299,-81.517308,,,0,
4889,,S GREEN RD & BAYARD RD,,41.510411,-81.519394,,,0,
4890,,S GREEN RD & BAYARD RD,,41.510766,-81.51952,,,0,
4892,,S GREEN RD & BLUESTONE RD,,41.536051,-81.523166,,,0,
4893,,S GREEN RD & BLUESTONE RD,,41.536412,-81.52386,,,0,
4895,,S GREEN RD & CEDAR RD,,41.50103,-81.519152,,,0,
4896,,S GREEN RD & CEDAR RD,,41.501781,-81.519556,,,0,
4900,,GREEN RD & CLARKWOOD PKWY,,41.439921,-81.517111,,,0,
4903,,S GREEN RD & E BERWALD RD,,41.527063,-81.519721,,,0,
4905,,S GREEN RD & EDMOND DR,,41.523228,-81.519405,,,0,
4906,,S GREEN RD & ELMWOOD RD,,41.527118,-81.519833,,,0,
4907,,S GREEN RD & EMERSON RD,,41.528595,-81.519849,,,0,
4911,,GREEN RD & EUCLID AV,,41.556804,-81.549926,,,0,
4912,,S GREEN RD & FAIRMOUNT BLVD,,41.485856,-81.517005,,,0,
4913,,S GREEN RD & FAIRMOUNT BLVD,,41.486702,-81.517118,,,0,
4917,,2191 GREEN RD,,41.549757,-81.541409,,,0,
4920,,GREEN RD & HARVARD RD,,41.450758,-81.516899,,,0,
4922,,GREEN RD & LANCASTER RD,,41.545388,-81.53545,,,0,
